~VERSION INFORMATION
 VERS.                 2.0:   CWLS LOG ASCII STANDARD - VERSION 2.0
 WRAP.                  NO:   SINGLE LINE PER DEPTH STEP
 CREA.                 11/14/2024 5:53:38 PM
#CREATED USING IP VERSION 4.1.2012.198 BY ADMIN ON 11/14/2024 5:53:38 PM
~WELL INFORMATION
#MNEM.UNIT       DATA                          DESCRIPTION MNEMONIC
#---------      ---------------------------   --------------------------
 STRT    .M         1399.9464                 : START DEPTH
 STOP    .M         1650.0348                 : STOP DEPTH
 STEP    .M         0.1524                    : STEP VALUE
 NULL    .      -999.0000                     : NULL VALUE
 SRVC    .      SCH                           : Service Company/Logging company
 DATE    .      11/14/2024                    : LAS file Creation Date
 WELL    .      DD2X                          : Well Name
 COMP    .      Lam Son JOC                   : Company
 FLD     .      Dong Do                       : Field
 STATE   .      Viet Nam                      : State
 COUNT   .      Viet Nam                      : Country
 API     .      6                             : API Number
 UWI     .      6                             : Unique Well Identifier (UWI)
 LOC     .      Location                      : Location
 LATI    .      0.1217883333                  : Latitude/Northing
 LONG    .      0.5657158332                  : Longitude/Easting
 PDAT    .      Mean Sea Level                : Permanent Datum
 EPDAT   .      0.000000                      : Elevation of Permanent Datum
 LGMEA   .      Rotary Table                  : Log Measured from
 APDAT   .      28.799999                     : Elevation Above Permanent Datum
 RWS     .      0                             : Def_Rw
 WST     .      0                             : Def_Rwt
 UTMZ    .      31                            : UTM Zone
 CNTY    .      Shelf Explorer                : County
 PROV    .      Vung Tau                      : Province
 SRVC    .      SCH                           : Contractor
~CURVE INFORMATION
#MNEM              UNIT       API CODE   Curve Type        Comments
#----------  --------------- ----------  --------------- -----------
 DEPTH      .M                         : Depth           
 GR         .gAPI                      : GammaRay        
 DTC        .us/ft                     : Sonic           
 NPHI       .dec                       : Neutron         
 RHOB       .g/cc                      : Density         
 RT_HRLT    .OHMM                      :                 HRLT Computed True Resistivity {F13.4}
 RXOZ       .OHMM                      : MicroRes        MCFL Standard Resolution Invaded Zone Resistivity {F13.4}
~A  DEPTH     GR       DTC       NPHI      RHOB    RT_HRLT     RXOZ   
# ...
1606.6008   69.8850   78.6100    0.2200    2.3920    3.9817    2.0253 
1606.7532   73.2390   78.8030    0.2440    2.3660    3.3804    1.7195 
1606.9056   70.9600   79.2060    0.2310    2.3560    3.3065    1.7053 
1607.0580   68.3440   79.5570    0.2400    2.3480    3.3628    1.5884 
1607.2104   70.0010   79.4390    0.2600    2.3470    3.2824    1.6650 
1607.3628   72.5430   77.3540    0.2750    2.3470    3.3293    1.7663 
1607.5152   73.5660   76.5730    0.2840    2.3500    3.4236    2.0138 
1607.6676   73.3670   74.7960    0.2620    2.3710    3.7858    2.1030 
1607.8200   72.7350   72.1850    0.2590    2.4010    4.6470    2.4444 
1607.9724   75.0770   68.6360    0.2210    2.4490    6.0172    3.4483 
1608.1248   71.0320   68.1490    0.1970    2.4770    5.7703    6.2374 
1608.2772   71.3900   67.5470    0.1720    2.4920    6.2753    8.6249 
1608.4296   67.2110   66.6050    0.1690    2.4770   13.2224    7.8740 
1608.5820   67.0790   65.3820    0.1790    2.4760   11.7481    7.4069 
1608.7344   65.2330   64.9820    0.2080    2.4670   12.4576    6.2998 
1608.8868   65.6470   64.6650    0.2250    2.4560   12.3079    6.9375 
1609.0392   66.9230   64.5730    0.2160    2.4420   10.4405    7.9715 
1609.1916   69.4140   64.6710    0.2290    2.4530    9.7358    7.9169 
1609.3440   70.5810   64.6640    0.2360    2.4800   11.8872    8.0687 
1609.4964   66.9730   64.1610    0.2220    2.5090   11.7759    8.5052 
1609.6488   65.8360   64.0800    0.1950    2.5490    9.0935   12.6258 
1609.8012   63.6350   64.0530    0.1710    2.5840    9.9769   18.3446 
1609.9536   67.7070   63.4930    0.1570    2.6080   19.6391   43.7682 
1610.1060   67.1600   63.2280    0.1530    2.5840   13.9331   17.9585 
1610.2584   70.0670   63.6130    0.1490    2.5690    9.5565   15.5671 
1610.4108   67.4440   63.8330    0.1620    2.5510    9.4942   10.5280 
1610.5632   69.7030   63.5030    0.1760    2.5550   10.6923   10.7973 
1610.7156   68.5560   63.3190    0.1830    2.5550   10.3248    8.8277 
1610.8680   69.4910   63.0120    0.1720    2.5660    8.7298   12.2836 
1611.0204   68.5980   62.0790    0.1660    2.5740   14.8580   11.8271 
1611.1728   68.5850   61.7430    0.1610    2.5730   15.6221   13.4341 
1611.3252   67.7440   61.4960    0.1490    2.5730   15.8692   15.2824 
1611.4776   64.0200   60.3910    0.1450    2.5850   19.8051   25.1856 
1611.6300   64.5910   59.9800    0.1470    2.5940   19.2063   35.5381 
1611.7824   62.1430   60.1920    0.1550    2.6000   15.5809   29.3262 
1611.9348   63.3180   59.7830    0.1490    2.6000   14.9101   27.3873 
1612.0872   61.8990   59.9650    0.1510    2.6040   16.8972   29.2411 
1612.2396   63.7490   58.1580    0.1510    2.5950   17.1715   26.6442 
1612.3920   63.2100   57.4190    0.1540    2.5890   21.4202   31.1737 
1612.5444   59.8260   56.5010    0.1340    2.5860   20.4968   30.4729 
1612.6968   60.7250   56.3380    0.1100    2.5930   27.3429   21.6695 
1612.8492   62.0620   56.0860    0.0980    2.5960   30.5646   19.1425 
1613.0016   64.3700   56.0860    0.0860    2.6060   26.9669   22.0694 
1613.1540   65.2760   55.7500    0.0850    2.6180   26.6007   61.2233 
1613.3064   65.1450   55.9230    0.0820    2.6230   27.2313   73.6873 
1613.4588   68.1860   56.6330    0.0880    2.6230   27.4291   84.6896 
1613.6112   64.4260   56.6440    0.0850    2.6200   29.9400   84.1401 
1613.7636   63.6410   57.1710    0.0830    2.6230   27.7863   70.2146 
1613.9160   63.1450   56.8760    0.0880    2.6370   18.9952   54.6637 
1614.0684   65.0390   56.9940    0.0870    2.6510   20.2796   61.2830 
1614.2208   66.8590   56.4140    0.0800    2.6580   28.4709   74.4167 
1614.3732   65.2150   56.0410    0.0750    2.6470   34.6581   97.4797 
1614.5256   66.7770   56.0920    0.0750    2.6440   40.8478  109.4226 
1614.6780   65.1060   56.1640    0.0740    2.6370   40.8350  111.2006 
1614.8304   63.5610   56.3430    0.0760    2.6270   34.2799   87.4434 
1614.9828   64.7230   56.4840    0.0820    2.6190   22.5566   60.6962 
1615.1352   61.1420   56.8400    0.0840    2.6240   21.8095   12.3979 
1615.2876   61.2550   56.5460    0.0810    2.6380   25.3356   13.0079 
1615.4400   57.7100   56.6360    0.0800    2.6450   24.0914   13.0101 
1615.5924   62.1870   56.6390    0.0780    2.6390   18.1733   17.7424 
1615.7448   64.6560   57.0580    0.0750    2.6270   29.0278   16.1048 
1615.8972   66.3660   58.1070    0.0750    2.6110   36.6394    6.7129 
1616.0496   67.9530   57.6570    0.0770    2.6080   35.8148    3.7165 
1616.2020   66.5080   57.6910    0.0740    2.6110   29.4109    3.7683 
1616.3544   66.8500   57.6840    0.0690    2.6090   24.2329    7.1089 
1616.5068   68.0360   57.1450    0.0650    2.5990   16.3727   15.0898 
1616.6592   67.7640   56.4890    0.0630    2.5960   34.2487   13.9713 
1616.8116   67.1280   56.4350    0.0620    2.6030   51.4574   11.3910 
1616.9640   61.7950   56.1100    0.0610    2.6180   44.4230   29.9933 
1617.1164   62.1520   55.8610    0.0570    2.6290   42.6704   40.3626 
1617.2688   58.6680   55.9620    0.0610    2.6340   29.1977   53.9606 
1617.4212   58.9630   55.2420    0.0620    2.6200   33.7829   39.1228 
1617.5736   59.5730   54.7940    0.0590    2.6150   39.4021   38.9582 
1617.7260   61.5730   54.4630    0.0530    2.6110   33.7307   56.7801 
1617.8784   60.2640   55.2090    0.0500    2.6130   42.6489   68.3636 
1618.0308   58.7070   55.4370    0.0520    2.6150   30.7750   83.2786 
1618.1832   60.3210   60.1400    0.0520    2.6060   41.7521  110.2156 
1618.3356   64.0080   59.2170    0.0520    2.5990   34.5533   69.3548 
1618.4880   66.0610   59.8900    0.0630    2.5820   19.2565   34.2347 
1618.6404   66.9940   60.1300    0.0830    2.5760   11.9791   20.3107 
1618.7928   69.4670   61.4680    0.1060    2.5800    8.7933   13.3037 
1618.9452   69.1810   62.1820    0.1070    2.5890   11.1586   13.1893 
1619.0976   70.3530   63.4130    0.0950    2.6020   14.1763   17.1202 
1619.2500   67.1680   62.5290    0.0940    2.6180   12.6607   28.9308 
1619.4024   68.4350   62.8540    0.0930    2.6210   11.2613   28.5298 
1619.5548   66.5490   63.6430    0.0970    2.6240   14.8375   36.1356 
1619.7072   70.5670   64.0310    0.0950    2.6240   17.3909   40.4072 
1619.8596   70.0430   64.6190    0.0900    2.6230   13.8658   26.6335 
1620.0120   68.9330   64.6320    0.0970    2.5950    9.9224   17.0533 
1620.1644   64.1010   63.7120    0.1080    2.5830   12.5136   10.4946 
1620.3168   66.8370   63.8160    0.1090    2.5730   14.3293    7.2499 
1620.4692   69.6940   57.5410    0.1110    2.5870   16.8235    6.8832 
1620.6216   71.2690   57.3240    0.1090    2.5830   15.5884    7.2290 
1620.7740   67.9500   64.5290    0.1150    2.5840   12.1585    8.0534 
1620.9264   68.0420   65.6080    0.1120    2.5770   16.2550    7.0970 
1621.0788   67.0670   65.2070    0.1300    2.5720   15.2725    7.3749 
1621.2312   68.7980   67.5380    0.1340    2.5680   14.6599    6.6395 
1621.3836   69.4580   66.7220    0.1420    2.5660   16.0731    6.2509 
1621.5360   72.7120   66.3190    0.1350    2.5520   14.2405    5.9959 
1621.6884   74.7420   66.5080    0.1390    2.5430   10.2088    5.9661 
1621.8408   76.1140   65.6310    0.1300    2.5450    8.7962    5.9259 
1621.9932   76.0460   65.7040    0.1280    2.5640    9.5077    6.2074 
1622.1456   74.4680   65.0040    0.1280    2.5820   10.7702    7.8707 
1622.2980   73.1080   63.5500    0.1310    2.5840   19.9955    9.4544 
1622.4504   72.8390   64.1780    0.1310    2.5640   23.2444   11.2931 
1622.6028   71.0770   63.0300    0.1390    2.5370   19.3317   11.6355 
1622.7552   70.3050   63.1330    0.1480    2.5240   21.4957   15.3771 
1622.9076   67.5200   63.8750    0.1480    2.5460   19.4678   18.0488 
1623.0600   66.0010   64.1190    0.1280    2.5720   17.4399   24.2660 
1623.2124   67.8390   67.7920    0.1240    2.5830   21.0749   17.2618 
1623.3648   69.2970   65.0730    0.1230    2.5570   11.2680   12.3004 
1623.5172   70.8190   65.6510    0.1360    2.5280   13.0024    7.8723 
1623.6696   68.5650   64.6900    0.1440    2.5110   15.8501    6.6452 
