~VERSION INFORMATION
 VERS.                 2.0:   CWLS LOG ASCII STANDARD - VERSION 2.0
 WRAP.                  NO:   SINGLE LINE PER DEPTH STEP
 CREA.                 11/14/2024 5:53:38 PM
#CREATED USING IP VERSION 4.1.2012.198 BY ADMIN ON 11/14/2024 5:53:38 PM
~WELL INFORMATION
#MNEM.UNIT       DATA                          DESCRIPTION MNEMONIC
#---------      ---------------------------   --------------------------
 STRT    .M         1399.9464                 : START DEPTH
 STOP    .M         1650.0348                 : STOP DEPTH
 STEP    .M         0.1524                    : STEP VALUE
 NULL    .      -999.0000                     : NULL VALUE
 SRVC    .      SCH                           : Service Company/Logging company
 DATE    .      11/14/2024                    : LAS file Creation Date
 WELL    .      DD2X                          : Well Name
 COMP    .      Lam Son JOC                   : Company
 FLD     .      Dong Do                       : Field
 STATE   .      Viet Nam                      : State
 COUNT   .      Viet Nam                      : Country
 API     .      6                             : API Number
 UWI     .      6                             : Unique Well Identifier (UWI)
 LOC     .      Location                      : Location
 LATI    .      0.1217883333                  : Latitude/Northing
 LONG    .      0.5657158332                  : Longitude/Easting
 PDAT    .      Mean Sea Level                : Permanent Datum
 EPDAT   .      0.000000                      : Elevation of Permanent Datum
 LGMEA   .      Rotary Table                  : Log Measured from
 APDAT   .      28.799999                     : Elevation Above Permanent Datum
 RWS     .      0                             : Def_Rw
 WST     .      0                             : Def_Rwt
 UTMZ    .      31                            : UTM Zone
 CNTY    .      Shelf Explorer                : County
 PROV    .      Vung Tau                      : Province
 SRVC    .      SCH                           : Contractor
~CURVE INFORMATION
#MNEM              UNIT       API CODE   Curve Type        Comments
#----------  --------------- ----------  --------------- -----------
 DEPTH      .M                         : Depth           
 GR         .gAPI                      : GammaRay        
 DTC        .us/ft                     : Sonic           
 NPHI       .dec                       : Neutron         
 RHOB       .g/cc                      : Density         
 RT_HRLT    .OHMM                      :                 HRLT Computed True Resistivity {F13.4}
 RXOZ       .OHMM                      : MicroRes        MCFL Standard Resolution Invaded Zone Resistivity {F13.4}
~A  DEPTH     GR       DTC       NPHI      RHOB    RT_HRLT     RXOZ   
# ...
1434.3888   96.2770  103.9040    0.3600    2.2200    3.6245    0.7727 
1434.5412   97.8350  103.7670    0.3780    2.2220    3.6113    0.7984 
1434.6936  102.4650  103.8180    0.3640    2.2330    3.6493    0.8452 
1434.8460  108.4530  103.7430    0.3200    2.2590    3.5973    0.9339 
1434.9984  110.2710  103.4170    0.3190    2.2740    3.5034    1.0686 
1435.1508  106.1700  101.6400    0.3350    2.2870    3.6488    1.2131 
1435.3032  102.0890  101.8130    0.3650    2.2770    3.6295    0.9866 
1435.4556  102.6840  101.0640    0.3660    2.2600    3.1565    0.8254 
1435.6080  111.0560  104.2870    0.3350    2.2790    3.1824    0.7926 
1435.7604  122.7550  103.0270    0.3280    2.3200    3.8603    1.1146 
1435.9128  124.1950  102.8810    0.3310    2.3700    3.6787    1.4750 
1436.0652  121.2390  102.7350    0.3530    2.3490    2.9246    1.3633 
1436.2176  113.9050  102.0030    0.3570    2.3000    3.2713    1.0773 
1436.3700  115.2900  101.5430    0.3650    2.2670    3.5675    0.9103 
1436.5224  113.7560  100.4710    0.3270    2.2640    3.6313    0.9154 
1436.6748  118.2290  100.6820    0.3050    2.2850    5.6298    0.9226 
1436.8272  111.2050   98.2470    0.3030    2.2930    5.2294    0.9562 
1436.9796  108.6170  101.4490    0.3410    2.2840    4.9297    0.9973 
1437.1320  100.4140   99.5180    0.3410    2.2630    4.1017    0.9200 
1437.2844   99.8660   99.4900    0.3300    2.2480    3.6585    0.8157 
1437.4368  100.0570  103.5500    0.3070    2.2380    3.8456    0.8089 
1437.5892   95.5800  102.0490    0.3270    2.2130    3.6157    0.7992 
1437.7416   93.9080  103.2500    0.3610    2.1860    3.2214    0.7619 
1437.8940   92.8860  103.3730    0.3680    2.1900    2.9250    0.6779 
1438.0464  102.9590  103.5570    0.3440    2.2360    3.0405    0.7409 
1438.1988  112.4370  103.8300    0.2990    2.3070    3.8089    0.9103 
1438.3512  116.6120  103.5940    0.2820    2.3560    3.4027    1.2275 
1438.5036  118.3530  102.7200    0.2910    2.3510    3.3316    1.3071 
1438.6560  113.4080  103.7860    0.3170    2.3220    2.7181    1.0385 
1438.8084  117.9660  104.0350    0.3570    2.2890    2.9034    0.9260 
1438.9608  119.5240  104.3470    0.3540    2.3070    3.0727    0.9554 
1439.1132  122.9470  104.6310    0.3200    2.3140    3.1083    1.1223 
1439.2656  122.6110  104.7150    0.3150    2.3190    2.9588    0.9941 
1439.4180  122.0720  104.8490    0.3350    2.3110    2.9575    0.8775 
1439.5704  121.5790  105.4480    0.3610    2.3240    3.1684    0.9283 
1439.7228  124.8160  103.2710    0.3810    2.3390    3.5042    1.2212 
1439.8752  121.9710  103.5280    0.3640    2.3310    3.7840    1.3413 
1440.0276  113.8530  103.4880    0.3410    2.2870    3.5293    1.1071 
1440.1800  104.9340  103.8810    0.3470    2.2450    3.6702    0.8908 
1440.3324  102.9910  104.8390    0.3690    2.2180    3.6670    0.8033 
1440.4848  107.2490  105.0460    0.3830    2.2210    3.8710    0.8426 
1440.6372  104.9800  105.5570    0.3730    2.2200    4.2927    0.8770 
1440.7896  104.3990  106.8120    0.3470    2.2160    4.5199    0.8595 
1440.9420   98.4040  107.1040    0.3470    2.2060    4.6379    0.8359 
1441.0944   95.4640  107.2330    0.3470    2.1990    4.7339    0.8119 
1441.2468   91.9200  106.9040    0.3620    2.1860    5.4495    0.8141 
1441.3992   94.0660  106.3700    0.3370    2.1830    5.4420    0.7979 
1441.5516   91.8550  105.7660    0.3320    2.1900    5.6181    0.7864 
1441.7040   84.6710  106.7990    0.3340    2.1930    5.5540    0.7849 
1441.8564   81.9460  106.4060    0.3370    2.1980    5.8888    0.8761 
1442.0088   83.1260  106.7950    0.3530    2.1940    6.0810    0.9219 
1442.1612   86.7960  107.1830    0.3490    2.1970    5.8111    0.9244 
1442.3136   87.6800  107.1500    0.3380    2.1990    5.3091    0.8812 
1442.4660   90.5910  106.8160    0.3260    2.2150    5.7637    0.9483 
1442.6184   91.7020  107.0650    0.3290    2.2250    6.2790    0.9195 
1442.7708   90.1400  107.7080    0.3620    2.2150    6.0782    0.9336 
1442.9232   86.4010  107.8430    0.3540    2.1840    6.0285    0.8515 
1443.0756   84.7050  107.5770    0.3830    2.1670    6.1163    0.8301 
1443.2280   83.3440  108.0580    0.3630    2.1580    6.1653    0.8544 
1443.3804   82.9230  108.3580    0.3550    2.1600    6.3033    0.8407 
1443.5328   85.2560  109.4110    0.3460    2.1510    6.4511    0.7977 
1443.6852   86.5850  108.8360    0.3440    2.1480    6.0485    0.7224 
1443.8376   84.8670  108.6790    0.3480    2.1440    5.9916    0.6915 
1443.9900   81.2580  109.3250    0.3810    2.1490    6.0534    0.6845 
1444.1424   80.5600  109.7220    0.3790    2.1590    5.8754    0.6862 
1444.2948   83.6110  107.9460    0.3540    2.1590    5.7261    0.6804 
1444.4472   81.3820  108.0720    0.3350    2.1560    5.8164    0.7269 
1444.5996   82.7500  108.1160    0.3420    2.1490    5.9153    0.7886 
1444.7520   84.3160  108.1030    0.3900    2.1460    6.2583    0.8442 
1444.9044   90.6720  108.1970    0.3820    2.1470    6.1024    0.8408 
1445.0568   92.4040  108.3280    0.3900    2.1520    6.1237    0.8315 
1445.2092   90.0250  108.3180    0.3640    2.1550    6.2606    0.7971 
1445.3616   89.7930  108.7490    0.3750    2.1480    5.9156    0.7332 
1445.5140   87.7120  108.9900    0.3830    2.1410    5.7865    0.6890 
1445.6664   84.8360  108.9040    0.3810    2.1370    5.7791    0.6780 
1445.8188   83.9070  109.1160    0.3620    2.1430    5.6665    0.6694 
1445.9712   86.5790  109.1450    0.3620    2.1440    5.3378    0.6412 
1446.1236   90.0390  109.1190    0.3440    2.1460    5.1475    0.6271 
1446.2760   92.9290  107.6950    0.3350    2.1440    5.1932    0.6481 
1446.4284   87.2210  107.1000    0.3260    2.1460    4.9362    0.6822 
1446.5808   87.0760  106.6690    0.3400    2.1470    4.7462    0.7162 
1446.7332   84.0880  104.7950    0.3470    2.1490    4.6293    0.7228 
1446.8856   87.2250  102.9040    0.3640    2.1570    4.4983    0.7188 
1447.0380   91.0630  101.9890    0.3640    2.2210    4.8929    0.7957 
1447.1904  100.3950  101.7980    0.3320    2.3280    6.5092    1.0052 
1447.3428  108.0440  103.9140    0.3040    2.4160    6.3987    1.3543 
1447.4952  112.2670   89.7360    0.3300    2.4550    6.5602    1.6729 
1447.6476  105.9960   90.3550    0.3230    2.4960   14.9678    2.3741 
1447.8000   98.5240   91.9830    0.2960    2.5370   23.9120    6.3974 
1447.9524   91.8720   93.7840    0.2680    2.5450   12.2019   15.6201 
1448.1048   86.4000   94.4740    0.2890    2.4370   11.9986    2.5489 
1448.2572   81.5900   97.2140    0.3100    2.2990    7.2128    0.8502 
1448.4096   80.6960  110.5430    0.3180    2.1800    5.5132    0.5179 
1448.5620   81.1510  110.0130    0.3100    2.1410    5.0240    0.4408 
1448.7144   83.2710  107.2570    0.3380    2.1380    5.0216    0.4409 
1448.8668   79.0960  108.9660    0.3480    2.1430    5.0162    0.4325 
1449.0192   79.5390  110.2640    0.3500    2.1410    4.9358    0.4247 
1449.1716   80.0190  110.0980    0.3600    2.1400    4.7390    0.4186 
1449.3240   80.6900  108.1920    0.3540    2.1350    4.5484    0.4272 
1449.4764   78.7970  107.9860    0.3670    2.1290    4.4989    0.4940 
1449.6288   77.8940  108.0530    0.3340    2.1320    4.3681    0.5487 
1449.7812   77.8990  107.7930    0.3490    2.1420    4.3332    0.6186 
1449.9336   76.6270  108.4230    0.3670    2.1540    4.8927    0.6441 
1450.0860   75.1440  108.1120    0.3690    2.1510    5.5406    0.6497 
1450.2384   75.2810  107.4080    0.3480    2.1410    5.5422    0.5895 
1450.3908   78.6450  107.0580    0.3260    2.1300    5.0262    0.4979 
1450.5432   81.1250  106.8840    0.3390    2.1300    4.6680    0.4755 
1450.6956   83.6820  106.8410    0.3420    2.1350    4.6953    0.6042 
1450.8480   82.5200  105.7760    0.3110    2.1570    4.4856    0.7691 
1451.0004   81.1050  104.3330    0.3010    2.1830    3.3381    0.8960 
1451.1528   76.9090  103.7760    0.3130    2.1940    3.2079    0.5952 
1451.3052   74.4920  102.2060    0.3340    2.1820    2.8992    0.4996 
1451.4576   72.5200  103.4220    0.3150    2.1620    2.6225    0.4192 
