~VERSION INFORMATION
 VERS.                 2.0:   CWLS LOG ASCII STANDARD - VERSION 2.0
 WRAP.                  NO:   SINGLE LINE PER DEPTH STEP
 CREA.                 11/14/2024 5:53:38 PM
#CREATED USING IP VERSION 4.1.2012.198 BY ADMIN ON 11/14/2024 5:53:38 PM
~WELL INFORMATION
#MNEM.UNIT       DATA                          DESCRIPTION MNEMONIC
#---------      ---------------------------   --------------------------
 STRT    .M         1399.9464                 : START DEPTH
 STOP    .M         1650.0348                 : STOP DEPTH
 STEP    .M         0.1524                    : STEP VALUE
 NULL    .      -999.0000                     : NULL VALUE
 SRVC    .      SCH                           : Service Company/Logging company
 DATE    .      11/14/2024                    : LAS file Creation Date
 WELL    .      DD2X                          : Well Name
 COMP    .      Lam Son JOC                   : Company
 FLD     .      Dong Do                       : Field
 STATE   .      Viet Nam                      : State
 COUNT   .      Viet Nam                      : Country
 API     .      6                             : API Number
 UWI     .      6                             : Unique Well Identifier (UWI)
 LOC     .      Location                      : Location
 LATI    .      0.1217883333                  : Latitude/Northing
 LONG    .      0.5657158332                  : Longitude/Easting
 PDAT    .      Mean Sea Level                : Permanent Datum
 EPDAT   .      0.000000                      : Elevation of Permanent Datum
 LGMEA   .      Rotary Table                  : Log Measured from
 APDAT   .      28.799999                     : Elevation Above Permanent Datum
 RWS     .      0                             : Def_Rw
 WST     .      0                             : Def_Rwt
 UTMZ    .      31                            : UTM Zone
 CNTY    .      Shelf Explorer                : County
 PROV    .      Vung Tau                      : Province
 SRVC    .      SCH                           : Contractor
~CURVE INFORMATION
#MNEM              UNIT       API CODE   Curve Type        Comments
#----------  --------------- ----------  --------------- -----------
 DEPTH      .M                         : Depth           
 GR         .gAPI                      : GammaRay        
 DTC        .us/ft                     : Sonic           
 NPHI       .dec                       : Neutron         
 RHOB       .g/cc                      : Density         
 RT_HRLT    .OHMM                      :                 HRLT Computed True Resistivity {F13.4}
 RXOZ       .OHMM                      : MicroRes        MCFL Standard Resolution Invaded Zone Resistivity {F13.4}
~A  DEPTH     GR       DTC       NPHI      RHOB    RT_HRLT     RXOZ   
# ...
1451.6100   74.8390   98.0500    0.3030    2.1830    3.2825    0.4909 
1451.7624   74.9130   97.3250    0.3040    2.2180    2.9721    0.5486 
1451.9148   76.6510   95.9170    0.2960    2.2530    2.9576    0.6790 
1452.0672   75.7560   94.4420    0.2770    2.2680    4.1092    0.8679 
1452.2196   76.3610   88.9510    0.2550    2.2640    3.2389    1.2117 
1452.3720   75.8240   87.2010    0.2690    2.2640    2.3714    0.9317 
1452.5244   79.1600   84.7980    0.2770    2.2770    1.8408    0.6235 
1452.6768   80.6580   82.6960    0.2470    2.3240    6.3927    0.7888 
1452.8292   80.5310   82.8500    0.2280    2.3710   10.5604    1.8446 
1452.9816   76.5830   81.9830    0.2270    2.4070    6.3754   11.0861 
1453.1340   76.5190   82.1990    0.2410    2.4070    4.0131    5.7468 
1453.2864   81.9930   82.6890    0.2540    2.3780    2.8936    2.6472 
1453.4388   84.0820   84.1050    0.2870    2.3280    2.4652    1.4471 
1453.5912   84.8810   84.7040    0.3130    2.2800    2.0790    0.9870 
1453.7436   85.3790   88.2420    0.3200    2.2640    1.9722    0.8513 
1453.8960   87.3220   89.9830    0.3440    2.2740    1.9014    0.8858 
1454.0484   87.2100   90.8430    0.3170    2.2970    1.7440    0.8135 
1454.2008   84.5290   91.7560    0.3090    2.3080    1.5544    0.7855 
1454.3532   83.4250   92.7500    0.2930    2.3010    1.4802    0.7125 
1454.5056   82.8500   94.0660    0.3160    2.2930    1.4287    0.6995 
1454.6580   79.2430   95.2540    0.3140    2.2870    1.3110    0.6071 
1454.8104   77.9380   95.8210    0.3230    2.2710    1.3107    0.5364 
1454.9628   82.5610   97.1010    0.3020    2.2510    1.2376    0.4958 
1455.1152   87.3790   97.5300    0.2870    2.2330    1.1782    0.4468 
1455.2676   88.5730   97.5390    0.2960    2.2270    1.1564    0.4660 
1455.4200   86.0540   97.4810    0.3160    2.2260    1.1619    0.4710 
1455.5724   87.6810   97.2840    0.3080    2.2230    1.1769    0.4989 
1455.7248   86.8520   97.4680    0.2960    2.2350    1.1449    0.4417 
1455.8772   85.1040   97.2560    0.2880    2.2510    1.1604    0.4280 
1456.0296   85.1490   97.1960    0.3100    2.2650    1.1227    0.4797 
1456.1820   85.4990   97.3050    0.3240    2.2610    1.1234    0.5023 
1456.3344   84.3990   97.1010    0.3360    2.2430    1.2157    0.4722 
1456.4868   81.7250   97.0060    0.3450    2.2190    1.2086    0.4525 
1456.6392   77.7260   96.6400    0.3190    2.2160    1.1668    0.4614 
1456.7916   83.7300   96.2350    0.3100    2.2320    1.1327    0.4779 
1456.9440   83.7270   98.1680    0.3010    2.2520    1.1982    0.4779 
1457.0964   88.4540   97.5890    0.3320    2.2600    1.1671    0.4893 
1457.2488   84.1340   96.3690    0.3520    2.2580    1.0875    0.4701 
1457.4012   80.8830   93.6000    0.3440    2.2610    1.0745    0.4483 
1457.5536   78.6350   93.8960    0.3200    2.2710    1.0723    0.4704 
1457.7060   79.5020   92.1490    0.3090    2.2950    1.2332    0.5006 
1457.8584   78.0280   91.8120    0.2970    2.3170    1.3840    0.5659 
1458.0108   81.7330   91.7980    0.3020    2.3250    1.4510    0.6212 
1458.1632   83.6520   91.9830    0.2900    2.3160    1.4000    0.6270 
1458.3156   86.0210   93.1440    0.2950    2.2960    1.2064    0.5594 
1458.4680   86.2750   93.7220    0.2840    2.2730    1.0913    0.5309 
1458.6204   84.8030   94.1400    0.2890    2.2600    1.0371    0.5068 
1458.7728   85.4980   97.0280    0.2830    2.2620    1.0483    0.5246 
1458.9252   82.8620   98.1760    0.2960    2.2620    1.0789    0.4844 
1459.0776   83.2750   98.6340    0.2970    2.2450    1.0227    0.4631 
1459.2300   84.3020  100.1040    0.3040    2.2190    1.0190    0.4305 
1459.3824   86.0660  102.0300    0.2980    2.2010    0.9830    0.4259 
1459.5348   83.1510  102.2160    0.2980    2.1920    0.9062    0.3951 
1459.6872   81.3850  103.8930    0.2870    2.1890    0.8454    0.3797 
1459.8396   83.5080  104.7340    0.3040    2.1850    0.8139    0.3706 
1459.9920   86.5800  105.4350    0.3070    2.1800    0.7871    0.3864 
1460.1444   87.0910  105.7700    0.3160    2.1760    0.8511    0.3707 
1460.2968   85.4320  105.9880    0.3090    2.1660    0.7796    0.3720 
1460.4492   84.7100  106.3190    0.3610    2.1590    0.7695    0.3533 
1460.6016   85.5970  106.1290    0.3810    2.1570    0.7943    0.3521 
1460.7540   89.6570  106.0130    0.3880    2.1600    0.8232    0.3442 
1460.9064   91.4570  105.6490    0.3520    2.1650    0.8655    0.3402 
1461.0588   92.5740  105.3900    0.3670    2.1770    0.9061    0.3413 
1461.2112   88.0680  105.3650    0.3380    2.2380    0.9740    0.3721 
1461.3636   95.2370  105.4570    0.3250    2.3150    1.2691    0.5130 
1461.5160   99.1160  105.8410    0.2920    2.3870    1.3706    0.8104 
1461.6684  101.9000  105.5720    0.2980    2.3840    1.0043    1.0225 
1461.8208   98.0330  105.8130    0.3210    2.3340    0.9973    0.6984 
1461.9732   91.6510  106.1670    0.3410    2.2580    0.8007    0.5040 
1462.1256   88.0460  106.0180    0.3510    2.2020    0.8011    0.3896 
1462.2780   85.1820  105.6130    0.3480    2.1790    0.8901    0.3827 
1462.4304   84.1650  105.4620    0.3340    2.1790    0.8971    0.3870 
1462.5828   86.6560  105.0280    0.3400    2.1780    0.8833    0.3955 
1462.7352   86.0830  104.6000    0.3600    2.1840    0.9074    0.3910 
1462.8876   90.6640  104.4190    0.3780    2.1860    0.9161    0.3923 
1463.0400   90.8450  104.2990    0.3830    2.1910    0.9529    0.3872 
1463.1924   94.3910  104.1580    0.3930    2.1880    0.9240    0.3983 
1463.3448   92.1510  104.0990    0.3780    2.1890    0.9413    0.3969 
1463.4972   97.3790  103.8810    0.3590    2.1900    0.9446    0.3968 
1463.6496   93.0230  103.7510    0.3310    2.1890    0.9605    0.3989 
1463.8020   95.7890  103.6780    0.3410    2.1860    0.9361    0.4097 
1463.9544   91.2970  103.6240    0.3270    2.1910    0.8807    0.4079 
1464.1068   98.2110  103.5880    0.3380    2.2010    0.8485    0.3963 
1464.2592  100.0280  103.5590    0.3540    2.2130    0.8989    0.3982 
1464.4116  103.5010  103.5980    0.3810    2.2300    0.9009    0.4058 
1464.5640  100.2330  103.5990    0.3600    2.2400    0.9225    0.4268 
1464.7164   99.1390  103.7170    0.3270    2.2430    0.9483    0.4117 
1464.8688   91.2160  106.7470    0.3260    2.2250    0.9873    0.3936 
1465.0212   88.8860  106.5350    0.3380    2.2080    0.8313    0.3751 
1465.1736   85.2360  106.0730    0.3430    2.1960    0.9348    0.3763 
1465.3260   88.9280  106.1780    0.3470    2.1980    0.9467    0.3794 
1465.4784   90.5330  106.3770    0.3880    2.2000    0.8990    0.3772 
1465.6308   90.3140  105.1300    0.3940    2.2010    0.9026    0.3693 
1465.7832   88.1980  104.2300    0.3790    2.2060    0.8967    0.3715 
1465.9356   83.7020  103.6510    0.3390    2.2120    0.8574    0.3722 
1466.0880   83.2160  103.4980    0.3470    2.2230    0.9083    0.3791 
1466.2404   86.2810  103.0210    0.3820    2.2300    0.9536    0.3941 
1466.3928   88.9770  102.1410    0.3810    2.2350    0.9933    0.4208 
1466.5452   91.6390  101.5950    0.3420    2.2370    0.9783    0.4251 
1466.6976   88.9640  101.6050    0.3340    2.2380    0.9433    0.4254 
1466.8500   89.7930  100.4190    0.3450    2.2450    0.9942    0.4348 
1467.0024   91.1190   98.4000    0.3670    2.2520    1.0252    0.4554 
1467.1548   91.5220   98.3660    0.3580    2.2540    1.0680    0.4813 
1467.3072   90.1160   97.8170    0.3420    2.2460    1.1846    0.4679 
1467.4596   88.9190   96.4570    0.3320    2.2510    1.1249    0.4854 
1467.6120   87.3780   96.4260    0.3210    2.2720    1.1666    0.4984 
1467.7644   90.2910   96.2670    0.3230    2.2910    1.1830    0.5208 
1467.9168   89.8730   96.2200    0.3110    2.2920    1.2044    0.5279 
1468.0692   90.5200   96.3870    0.3150    2.2800    1.0966    0.5166 
1468.2216   88.2470   96.5140    0.3160    2.2690    1.0359    0.5073 
1468.3740   88.3830   96.7860    0.3380    2.2620    1.1466    0.5047 
1468.5264   90.9310   97.5790    0.3310    2.2580    1.0535    0.4957 
1468.6788   88.7570   98.3400    0.3490    2.2550    0.9666    0.4650 
