~VERSION INFORMATION
 VERS.                 2.0:   CWLS LOG ASCII STANDARD - VERSION 2.0
 WRAP.                  NO:   SINGLE LINE PER DEPTH STEP
 CREA.                 11/14/2024 5:53:38 PM
#CREATED USING IP VERSION 4.1.2012.198 BY ADMIN ON 11/14/2024 5:53:38 PM
~WELL INFORMATION
#MNEM.UNIT       DATA                          DESCRIPTION MNEMONIC
#---------      ---------------------------   --------------------------
 STRT    .M         1399.9464                 : START DEPTH
 STOP    .M         1650.0348                 : STOP DEPTH
 STEP    .M         0.1524                    : STEP VALUE
 NULL    .      -999.0000                     : NULL VALUE
 SRVC    .      SCH                           : Service Company/Logging company
 DATE    .      11/14/2024                    : LAS file Creation Date
 WELL    .      DD2X                          : Well Name
 COMP    .      Lam Son JOC                   : Company
 FLD     .      Dong Do                       : Field
 STATE   .      Viet Nam                      : State
 COUNT   .      Viet Nam                      : Country
 API     .      6                             : API Number
 UWI     .      6                             : Unique Well Identifier (UWI)
 LOC     .      Location                      : Location
 LATI    .      0.1217883333                  : Latitude/Northing
 LONG    .      0.5657158332                  : Longitude/Easting
 PDAT    .      Mean Sea Level                : Permanent Datum
 EPDAT   .      0.000000                      : Elevation of Permanent Datum
 LGMEA   .      Rotary Table                  : Log Measured from
 APDAT   .      28.799999                     : Elevation Above Permanent Datum
 RWS     .      0                             : Def_Rw
 WST     .      0                             : Def_Rwt
 UTMZ    .      31                            : UTM Zone
 CNTY    .      Shelf Explorer                : County
 PROV    .      Vung Tau                      : Province
 SRVC    .      SCH                           : Contractor
~CURVE INFORMATION
#MNEM              UNIT       API CODE   Curve Type        Comments
#----------  --------------- ----------  --------------- -----------
 DEPTH      .M                         : Depth           
 GR         .gAPI                      : GammaRay        
 DTC        .us/ft                     : Sonic           
 NPHI       .dec                       : Neutron         
 RHOB       .g/cc                      : Density         
 RT_HRLT    .OHMM                      :                 HRLT Computed True Resistivity {F13.4}
 RXOZ       .OHMM                      : MicroRes        MCFL Standard Resolution Invaded Zone Resistivity {F13.4}
~A  DEPTH     GR       DTC       NPHI      RHOB    RT_HRLT     RXOZ   
# ...
1486.0524   95.0040  103.1860    0.3540    2.1860    1.3233    0.6047 
1486.2048   95.1710  103.2370    0.3440    2.1870    1.3503    0.6909 
1486.3572   94.6390  103.1280    0.3240    2.1840    1.3326    0.7457 
1486.5096   91.2110  103.1450    0.3210    2.1910    1.3035    0.7225 
1486.6620   92.0610  103.1600    0.3340    2.1990    1.3235    0.6523 
1486.8144   94.8390  103.2860    0.3470    2.2070    1.2007    0.5858 
1486.9668   92.7110  103.6670    0.3340    2.2090    1.1328    0.5166 
1487.1192   92.7150  103.8020    0.3310    2.2120    1.1256    0.4959 
1487.2716   89.4080  103.8590    0.3190    2.2050    1.1379    0.4915 
1487.4240   90.5300  104.4650    0.3340    2.1900    1.1125    0.5067 
1487.5764   89.8070  105.0670    0.3580    2.1790    1.1055    0.5394 
1487.7288   89.6690  105.4620    0.3700    2.1710    1.1402    0.5743 
1487.8812   91.0400  105.4830    0.3650    2.1660    1.1234    0.5592 
1488.0336   88.2170  105.7470    0.3760    2.1620    1.0420    0.5052 
1488.1860   85.0310  105.8120    0.3980    2.1570    1.0478    0.4750 
1488.3384   84.4100  105.9940    0.3850    2.1500    1.0012    0.4388 
1488.4908   86.3760  105.6180    0.3530    2.1400    0.9562    0.4503 
1488.6432   86.2950  105.5700    0.3620    2.1410    0.8964    0.4079 
1488.7956   85.6680  105.2400    0.3560    2.1480    0.8649    0.3909 
1488.9480   85.1940  104.8950    0.3640    2.1550    0.8671    0.3493 
1489.1004   89.4360  104.6970    0.3570    2.1530    0.8632    0.3348 
1489.2528   87.0540  104.3520    0.3500    2.1520    0.8012    0.3263 
1489.4052   87.4900  104.0960    0.3600    2.1530    0.8554    0.3223 
1489.5576   86.5090  103.9520    0.3550    2.1560    0.8517    0.3334 
1489.7100   88.6560  104.1220    0.3730    2.1570    0.7710    0.3153 
1489.8624   88.8460  104.1730    0.3500    2.1610    0.8044    0.3264 
1490.0148   89.7920  104.4560    0.3370    2.1730    0.7979    0.3293 
1490.1672   87.1180  104.6350    0.3240    2.1760    0.8702    0.3472 
1490.3196   85.3130  104.9600    0.3380    2.1670    0.8652    0.3405 
1490.4720   83.0700  105.3880    0.3320    2.1610    0.8298    0.3409 
1490.6244   86.7040  105.5370    0.3310    2.1710    0.8580    0.3459 
1490.7768   87.4960  105.6160    0.3190    2.1880    0.8779    0.3514 
1490.9292   87.6640  106.1360    0.3230    2.1920    0.8647    0.3714 
1491.0816   88.5150  106.4510    0.3210    2.1850    0.8796    0.3789 
1491.2340   91.5970  106.6620    0.3030    2.1720    0.8465    0.3763 
1491.3864   92.8520  107.6240    0.3110    2.1600    0.9009    0.3653 
1491.5388   89.8490  106.5140    0.3120    2.1510    0.8416    0.3496 
1491.6912   87.8230  107.3460    0.3410    2.1490    0.7833    0.3383 
1491.8436   85.9080  107.2970    0.3260    2.1520    0.7790    0.3392 
1491.9960   84.8960  107.0240    0.3380    2.1590    0.8391    0.3515 
1492.1484   87.5780  107.1730    0.3120    2.1660    0.8667    0.3553 
1492.3008   91.5700  106.6100    0.3200    2.1650    0.8515    0.3409 
1492.4532   92.2190  106.6920    0.3170    2.1590    0.8594    0.3497 
1492.6056   89.6660  106.8020    0.3410    2.1560    0.8662    0.3444 
1492.7580   88.3780  107.6190    0.3620    2.1570    0.8911    0.3542 
1492.9104   87.7790  106.5240    0.3540    2.1570    0.8871    0.3436 
1493.0628   85.8680  106.2320    0.3616    2.1520    0.8674    0.3390 
1493.2152   80.8840  108.2510    0.3550    2.1490    0.8365    0.3257 
1493.3676   80.8840  106.3940    0.3633    2.1440    0.8176    0.3197 
1493.5200   78.8380  106.5850    0.3635    2.1470    0.7767    0.3180 
1493.6724   82.1910  107.0850    0.3650    2.1490    0.7676    0.3106 
1493.8248   82.5320  106.5110    0.3633    2.1470    0.7595    0.3126 
1493.9772   82.7440  106.0520    0.3631    2.1370    0.7622    0.3198 
1494.1296   81.0800  106.3470    0.3643    2.1360    0.7464    0.3279 
1494.2820   80.1030  106.9000    0.3410    2.1410    0.7195    0.3281 
1494.4344   83.0260  107.2050    0.3410    2.1750    0.7193    0.3361 
1494.5868   81.9290   94.5110    0.3069    2.2540    0.6960    0.3457 
1494.7392   81.1820   90.8220    0.2813    2.3490    0.8010    0.4626 
1494.8916   81.9490   88.3020    0.2597    2.4450    2.1593    0.8090 
1495.0440   82.4830   85.6080    0.2400    2.4510    1.9498    1.9923 
1495.1964   87.5550   83.2670    0.2420    2.4310    1.7861    1.1835 
1495.3488   93.1690   81.6070    0.2420    2.4080    1.6448    0.9937 
1495.5012   99.0040   82.3640    0.2260    2.4570    2.1281    1.2164 
1495.6536  103.5570   82.2750    0.2080    2.5350    4.3365    2.8194 
1495.8060  105.3200   86.7340    0.1960    2.5850    3.8580    4.5832 
1495.9584  113.4820   88.8710    0.2290    2.5550    3.8695    4.2708 
1496.1108  121.7170   90.9560    0.2620    2.4480    4.9828    1.1610 
1496.2632  130.8060   92.1620    0.2900    2.3190    2.4637    0.6611 
1496.4156  138.2900   94.1000    0.3018    2.2810    2.3875    0.5047 
1496.5680  140.4300   96.1940    0.3065    2.2990    2.3695    0.5857 
1496.7204  141.6050  105.8110    0.3345    2.3340    2.1220    0.5637 
1496.8728  136.1780  106.6950    0.3354    2.3490    2.4726    0.5303 
1497.0252  126.9060  106.5440    0.3329    2.3630    2.4347    0.6139 
1497.1776  113.6920  105.5940    0.3281    2.3740    2.2792    0.7226 
1497.3300  105.6930  103.9100    0.2840    2.3460    1.3694    0.7671 
1497.4824  100.3330  101.6590    0.3070    2.3170    1.2588    0.6694 
1497.6348   98.7720  101.0270    0.3050    2.3020    1.2482    0.6445 
1497.7872  102.7510  100.6200    0.3120    2.2900    1.5358    0.7025 
1497.9396  102.9040   99.4500    0.3219    2.2680    1.0328    0.6221 
1498.0920   99.9280   99.0740    0.3243    2.2420    0.9845    0.5404 
1498.2444   97.4860   98.5000    0.3230    2.2270    1.0145    0.4641 
1498.3968  101.8110   98.7210    0.3140    2.2300    1.0951    0.5158 
1498.5492   99.5120   98.6370    0.3221    2.2470    1.3026    0.5046 
1498.7016   97.2480   98.8940    0.3199    2.2690    1.3593    0.5935 
1498.8540   90.4300   99.0810    0.3182    2.2860    1.6564    0.5785 
1499.0064   92.0960   99.9590    0.3223    2.2780    1.2617    0.6456 
1499.1588   91.5050   99.7940    0.3190    2.2460    1.1964    0.5818 
1499.3112   93.1530  100.2690    0.3030    2.2160    1.1498    0.5212 
1499.4636   94.9440  100.7880    0.3230    2.2070    1.1036    0.4760 
1499.6160   90.5050  101.1390    0.3130    2.2230    1.2431    0.4742 
1499.7684   95.6990  100.9510    0.3210    2.2280    1.2490    0.4653 
1499.9208   94.9430  100.6570    0.3180    2.2190    1.1379    0.4775 
1500.0732   94.8710   98.4540    0.3130    2.2030    1.0542    0.4341 
1500.2256   87.7460   96.1530    0.3120    2.2070    1.0114    0.4298 
1500.3780   88.5400   95.0620    0.2980    2.2310    1.0142    0.4201 
1500.5304   93.0230   92.1670    0.2986    2.2560    1.2119    0.4627 
1500.6828  101.6640   92.6180    0.2981    2.2710    1.2661    0.5027 
1500.8352  108.9060   95.4300    0.3050    2.2800    1.5265    0.5884 
1500.9876  114.3730   96.7490    0.3080    2.2950    1.9036    0.4883 
1501.1400  122.1320   96.3880    0.3038    2.3230    2.1875    0.4215 
1501.2924  132.2160   99.7610    0.3172    2.3100    2.3623    0.3818 
1501.4448  135.2850  100.8150    0.3283    2.2560    2.4541    0.3533 
1501.5972  138.6200  101.3410    0.3353    2.2190    2.3573    0.3632 
1501.7496  135.5150  102.2820    0.3374    2.2270    2.4390    0.3738 
1501.9020  133.4040  104.3510    0.3367    2.2830    2.6098    0.4570 
1502.0544  126.9130  104.0360    0.3331    2.3010    2.6713    0.4987 
1502.2068  124.0770  103.5120    0.3338    2.2830    2.7547    0.4452 
1502.3592  127.0120  102.5500    0.3345    2.2540    2.7430    0.3226 
1502.5116  124.6340  101.0100    0.3260    2.2770    2.7541    0.2927 
1502.6640  123.3240  104.9780    0.3274    2.3640    3.5182    0.3839 
1502.8164  119.1310   96.8580    0.2839    2.4790    4.2311    0.8265 
1502.9688  114.0080   99.1590    0.2826    2.5440    3.8907    2.0782 
1503.1212  114.5130   94.5510    0.2530    2.5620    3.4640    3.2011 
