~VERSION INFORMATION
 VERS.                 2.0:   CWLS LOG ASCII STANDARD - VERSION 2.0
 WRAP.                  NO:   SINGLE LINE PER DEPTH STEP
 CREA.                 11/14/2024 5:53:38 PM
#CREATED USING IP VERSION 4.1.2012.198 BY ADMIN ON 11/14/2024 5:53:38 PM
~WELL INFORMATION
#MNEM.UNIT       DATA                          DESCRIPTION MNEMONIC
#---------      ---------------------------   --------------------------
 STRT    .M         1399.9464                 : START DEPTH
 STOP    .M         1650.0348                 : STOP DEPTH
 STEP    .M         0.1524                    : STEP VALUE
 NULL    .      -999.0000                     : NULL VALUE
 SRVC    .      SCH                           : Service Company/Logging company
 DATE    .      11/14/2024                    : LAS file Creation Date
 WELL    .      DD2X                          : Well Name
 COMP    .      Lam Son JOC                   : Company
 FLD     .      Dong Do                       : Field
 STATE   .      Viet Nam                      : State
 COUNT   .      Viet Nam                      : Country
 API     .      6                             : API Number
 UWI     .      6                             : Unique Well Identifier (UWI)
 LOC     .      Location                      : Location
 LATI    .      0.1217883333                  : Latitude/Northing
 LONG    .      0.5657158332                  : Longitude/Easting
 PDAT    .      Mean Sea Level                : Permanent Datum
 EPDAT   .      0.000000                      : Elevation of Permanent Datum
 LGMEA   .      Rotary Table                  : Log Measured from
 APDAT   .      28.799999                     : Elevation Above Permanent Datum
 RWS     .      0                             : Def_Rw
 WST     .      0                             : Def_Rwt
 UTMZ    .      31                            : UTM Zone
 CNTY    .      Shelf Explorer                : County
 PROV    .      Vung Tau                      : Province
 SRVC    .      SCH                           : Contractor
~CURVE INFORMATION
#MNEM              UNIT       API CODE   Curve Type        Comments
#----------  --------------- ----------  --------------- -----------
 DEPTH      .M                         : Depth           
 GR         .gAPI                      : GammaRay        
 DTC        .us/ft                     : Sonic           
 NPHI       .dec                       : Neutron         
 RHOB       .g/cc                      : Density         
 RT_HRLT    .OHMM                      :                 HRLT Computed True Resistivity {F13.4}
 RXOZ       .OHMM                      : MicroRes        MCFL Standard Resolution Invaded Zone Resistivity {F13.4}
~A  DEPTH     GR       DTC       NPHI      RHOB    RT_HRLT     RXOZ   
# ...
1417.1676  151.7990  114.5230    0.3260    2.2680    2.5985    0.5795 
1417.3200  143.9910   99.6550    0.3070    2.3190    2.9482    0.5838 
1417.4724  131.6130  100.3330    0.3084    2.3870    3.2822    0.6208 
1417.6248  129.0450  100.7140    0.3012    2.4480    3.6177    0.9420 
1417.7772  126.0260   98.6870    0.2973    2.4270    3.4462    0.9662 
1417.9296  126.3010  101.0170    0.3109    2.3860    3.3285    0.7801 
1418.0820  124.0660  101.5820    0.3160    2.3630    3.1463    0.7361 
1418.2344  130.9080  103.7520    0.3235    2.3620    3.0123    0.7186 
1418.3868  135.8190  104.6580    0.3240    2.3480    2.9150    0.7571 
1418.5392  145.0310  107.2720    0.3413    2.3210    2.5191    0.7157 
1418.6916  148.9760  111.1350    0.3593    2.2870    2.3338    0.6363 
1418.8440  154.0680  112.5220    0.3671    2.2660    2.2630    0.5851 
1418.9964  159.0520  113.2510    0.3705    2.2600    2.2964    0.5856 
1419.1488  158.5070  115.6140    0.3817    2.2380    2.1180    0.5935 
1419.3012  156.2460  116.1280    0.3914    2.1830    2.0033    0.5090 
1419.4536  153.7600  117.2070    0.4031    2.1280    2.0047    0.3552 
1419.6060  156.1940  117.6000    0.4077    2.1060    1.9300    0.2738 
1419.7584  153.3200  118.7480    0.4075    2.1350    2.0707    0.2861 
1419.9108  144.3100  120.3520    0.4053    2.1880    2.0519    0.3581 
1420.0632  140.2010  123.4250    0.4085    2.2390    1.9481    0.4572 
1420.2156  140.2190  125.3890    0.4080    2.2880    1.8142    0.4442 
1420.3680  148.4590  127.3470    0.4113    2.3110    1.9399    0.4776 
1420.5204  146.3240  129.7490    0.4204    2.3050    1.8905    0.5574 
1420.6728  143.4080  130.2060    0.4305    2.2480    1.8790    0.5358 
1420.8252  136.7650  130.5590    0.4543    2.0960    2.1853    0.5772 
1420.9776  126.5490  129.4860    0.4780    2.3105    2.5767    0.7435 
1421.1300  118.1850  128.3790    0.4959    2.3211    3.3437    1.5052 
1421.2824  116.8030  126.8010    0.4982    2.3316    2.5316    1.6352 
1421.4348  117.5900  125.4370    0.4660    2.3421    2.5885    0.8689 
1421.5872  120.9910  109.6570    0.4550    2.3526    1.8964    0.5459 
1421.7396  122.4510  107.3230    0.3620    2.3632    2.2129    0.5091 
1421.8920  136.3570  106.9310    0.3010    2.4158    2.5265    0.5471 
1422.0444  140.4110  106.0140    0.3390    2.3440    2.5357    0.6062 
1422.1968  140.2260  105.1540    0.3630    2.3280    2.5247    0.6271 
1422.3492  133.6120  104.8060    0.3610    2.3240    2.5846    0.6034 
1422.5016  138.6970  105.0650    0.3350    2.3220    2.5573    0.6025 
1422.6540  143.8250  105.1450    0.3480    2.3120    2.5852    0.6433 
1422.8064  147.6090  105.3900    0.3440    2.3080    2.5265    0.6585 
1422.9588  144.8430  108.4520    0.3850    2.3170    2.4505    0.6742 
1423.1112  142.2180  108.6560    0.3820    2.3260    2.4213    0.6365 
1423.2636  142.0170  108.7830    0.3890    2.3220    2.3355    0.6150 
1423.4160  144.8270  108.8020    0.3640    2.3030    2.3026    0.5938 
1423.5684  144.2480  109.3560    0.3440    2.2920    2.2414    0.5059 
1423.7208  144.8360  108.7990    0.3950    2.3140    2.2731    0.4552 
1423.8732  137.9870  107.4110    0.4010    2.3300    2.5484    0.4137 
1424.0256  133.6680  105.9760    0.4030    2.3290    2.7872    0.4159 
1424.1780  124.0780  104.3580    0.3730    2.3440    2.9907    0.4232 
1424.3304  115.6880  100.5510    0.3660    2.4130    3.4562    0.5509 
1424.4828  108.4470   99.7880    0.3250    2.4900    4.9449    1.1149 
1424.6352  106.7410   98.9520    0.3020    2.5290    5.0186    2.9496 
1424.7876  108.6410   98.0580    0.3060    2.4930    3.0325    1.6671 
1424.9400  114.9470   97.3850    0.3250    2.4540    2.8166    0.8831 
1425.0924  123.5210   96.3370    0.3160    2.4060    2.6588    0.6134 
1425.2448  126.2470   96.1750    0.3320    2.3980    2.5496    0.6729 
1425.3972  127.0490   96.2370    0.3490    2.4160    3.3825    0.9701 
1425.5496  119.5390   96.2150    0.3420    2.4270    3.5236    1.5901 
1425.7020  114.8710   95.9850    0.2940    2.4440    3.5190    1.5868 
1425.8544  114.7550   95.2530    0.2780    2.4390    3.1059    1.4560 
1426.0068  120.4010   94.9060    0.2620    2.4400    3.1213    1.4613 
1426.1592  119.5090   93.8430    0.2780    2.4450    2.9936    1.5182 
1426.3116  122.0490   93.5430    0.2480    2.4470    3.1727    1.4696 
1426.4640  119.2590   93.4570    0.2570    2.4500    3.1198    1.5553 
1426.6164  117.5010   93.0050    0.2640    2.4160    3.1432    1.5362 
1426.7688  110.9280   92.5950    0.2860    2.3810    3.4164    1.5060 
1426.9212  106.9520   92.5880    0.3000    2.3520    3.5359    1.2818 
1427.0736  107.6990   95.9590    0.2880    2.3390    3.4548    1.2214 
1427.2260   99.9330   96.2500    0.2860    2.3500    3.4891    1.3346 
1427.3784  100.5550   97.1660    0.2740    2.3740    4.3212    1.5592 
1427.5308   95.8300   97.2370    0.2830    2.4050    4.3552    1.8494 
1427.6832   97.2500   97.2810    0.2850    2.4210    4.1975    1.9281 
1427.8356  101.2480   99.7540    0.2810    2.4090    4.7525    1.7656 
1427.9880  101.3050  101.2210    0.3010    2.3780    4.0143    1.5617 
1428.1404  109.5250  101.6060    0.3290    2.3170    4.0197    1.1806 
1428.2928  106.0020  101.9220    0.3760    2.2520    3.9048    0.9494 
1428.4452  107.8630  102.2780    0.3910    2.2010    3.7459    0.7903 
1428.5976  102.5130  102.7580    0.3780    2.1790    3.6071    0.7546 
1428.7500  108.6330  102.9250    0.3460    2.1800    3.1888    0.7411 
1428.9024  114.5490  102.6410    0.3340    2.2130    3.3521    0.8030 
1429.0548  122.6440  102.0060    0.3300    2.2580    3.7262    0.8980 
1429.2072  119.6300   97.2450    0.3300    2.3030    3.4854    1.0437 
1429.3596  123.9560   96.1320    0.3080    2.3260    3.4992    1.0401 
1429.5120  121.6910   96.2300    0.2820    2.3890    3.6851    1.1700 
1429.6644  124.2540   97.0400    0.2470    2.4590    3.8177    1.6745 
1429.8168  119.0570   97.7330    0.2430    2.4600    4.5217    2.1104 
1429.9692  116.0720   98.5500    0.2850    2.3670    3.5118    1.4096 
1430.1216  108.0590   98.7140    0.3310    2.2700    3.7515    0.8973 
1430.2740   98.8730   99.9670    0.3640    2.2310    3.5624    0.8044 
1430.4264   96.6830  105.3920    0.3450    2.2320    3.4113    0.8189 
1430.5788  100.5260  105.7020    0.3460    2.2360    3.6454    0.8205 
1430.7312  106.7300  104.4430    0.3470    2.2480    3.9153    0.8616 
1430.8836  108.8640  104.2420    0.3520    2.2640    4.2209    0.9068 
1431.0360  105.3950  104.2570    0.3580    2.2540    3.7792    0.9060 
1431.1884  102.6700  104.3090    0.3310    2.2450    3.9488    0.8492 
1431.3408  103.0600  104.4560    0.3390    2.2440    3.9864    0.8559 
1431.4932  104.0610  104.5870    0.3410    2.2560    4.0766    0.8964 
1431.6456  103.9820  104.7840    0.3880    2.2780    4.1908    0.8948 
1431.7980  104.2630  105.0990    0.3790    2.2870    3.6394    0.9714 
1431.9504  110.2140  105.2240    0.3720    2.2960    4.2778    1.1048 
1432.1028  108.1870  105.4750    0.3330    2.2910    3.4274    1.0411 
1432.2552  109.6280  105.5100    0.3360    2.2920    3.4174    1.0441 
1432.4076  108.1390  105.7150    0.3290    2.2890    4.2247    0.9198 
1432.5600  109.4260  108.0410    0.3570    2.2850    4.1895    1.0059 
1432.7124  109.0900  106.3560    0.3400    2.2880    3.8019    0.9052 
1432.8648  108.4800  106.4080    0.3360    2.3030    4.6870    1.0564 
1433.0172  108.4530  106.1220    0.3210    2.3050    4.3058    1.1420 
1433.1696  105.2390  105.9870    0.3550    2.2670    4.2549    1.0510 
1433.3220  100.8670  105.8950    0.3750    2.2210    4.2012    0.8634 
1433.4744   97.2350  107.1920    0.3730    2.1880    3.9969    0.7720 
1433.6268   99.3100  106.7800    0.3800    2.2040    4.0691    0.8161 
1433.7792   99.0640  106.5320    0.3460    2.2160    4.0995    0.8516 
1433.9316   98.0280  105.3210    0.3540    2.2240    4.4090    0.8002 
1434.0840   97.1610  104.0140    0.3230    2.2150    4.0305    0.7236 
1434.2364   97.7680  103.7590    0.3510    2.2130    3.7980    0.7236 
