~VERSION INFORMATION
 VERS.                 2.0:   CWLS LOG ASCII STANDARD - VERSION 2.0
 WRAP.                  NO:   SINGLE LINE PER DEPTH STEP
 CREA.                 11/14/2024 5:53:38 PM
#CREATED USING IP VERSION 4.1.2012.198 BY ADMIN ON 11/14/2024 5:53:38 PM
~WELL INFORMATION
#MNEM.UNIT       DATA                          DESCRIPTION MNEMONIC
#---------      ---------------------------   --------------------------
 STRT    .M         1399.9464                 : START DEPTH
 STOP    .M         1650.0348                 : STOP DEPTH
 STEP    .M         0.1524                    : STEP VALUE
 NULL    .      -999.0000                     : NULL VALUE
 SRVC    .      SCH                           : Service Company/Logging company
 DATE    .      11/14/2024                    : LAS file Creation Date
 WELL    .      DD2X                          : Well Name
 COMP    .      Lam Son JOC                   : Company
 FLD     .      Dong Do                       : Field
 STATE   .      Viet Nam                      : State
 COUNT   .      Viet Nam                      : Country
 API     .      6                             : API Number
 UWI     .      6                             : Unique Well Identifier (UWI)
 LOC     .      Location                      : Location
 LATI    .      0.1217883333                  : Latitude/Northing
 LONG    .      0.5657158332                  : Longitude/Easting
 PDAT    .      Mean Sea Level                : Permanent Datum
 EPDAT   .      0.000000                      : Elevation of Permanent Datum
 LGMEA   .      Rotary Table                  : Log Measured from
 APDAT   .      28.799999                     : Elevation Above Permanent Datum
 RWS     .      0                             : Def_Rw
 WST     .      0                             : Def_Rwt
 UTMZ    .      31                            : UTM Zone
 CNTY    .      Shelf Explorer                : County
 PROV    .      Vung Tau                      : Province
 SRVC    .      SCH                           : Contractor
~CURVE INFORMATION
#MNEM              UNIT       API CODE   Curve Type        Comments
#----------  --------------- ----------  --------------- -----------
 DEPTH      .M                         : Depth           
 GR         .gAPI                      : GammaRay        
 DTC        .us/ft                     : Sonic           
 NPHI       .dec                       : Neutron         
 RHOB       .g/cc                      : Density         
 RT_HRLT    .OHMM                      :                 HRLT Computed True Resistivity {F13.4}
 RXOZ       .OHMM                      : MicroRes        MCFL Standard Resolution Invaded Zone Resistivity {F13.4}
~A  DEPTH     GR       DTC       NPHI      RHOB    RT_HRLT     RXOZ   
# ...
1554.9372   66.8100   69.5210    0.1540    2.4900    4.7982    5.2965 
1555.0896   67.2200   69.7460    0.1310    2.5380    4.8465    8.7141 
1555.2420   68.9780   69.6270    0.1220    2.5320    4.7644   17.2809 
1555.3944   71.2920   69.3080    0.1350    2.5040    2.3743    4.5865 
1555.5468   69.7130   68.4320    0.1490    2.4790    3.4790    2.8132 
1555.6992   68.2740   64.9160    0.1460    2.4750   10.7403    2.6677 
1555.8516   69.0900   63.8450    0.1360    2.4710    4.5808    2.9872 
1556.0040   67.0280   63.9570    0.1350    2.4670    5.5131    2.7310 
1556.1564   67.2280   64.7290    0.1240    2.4890    8.7742    2.7536 
1556.3088   67.3060   64.8440    0.1130    2.5240    9.0826    5.8724 
1556.4612   66.0810   65.7650    0.1080    2.5510    8.7228   14.1494 
1556.6136   65.5490   66.0210    0.1320    2.5340    7.5928    8.8948 
1556.7660   68.8730   66.5080    0.1800    2.4820    9.3372    6.2857 
1556.9184   74.1210   66.9120    0.2240    2.4220    3.8199    1.3728 
1557.0708   74.9120   67.8340    0.2320    2.3910    5.8428    1.2621 
1557.2232   74.9250   68.1870    0.2110    2.4060    7.5914    1.3483 
1557.3756   73.1080   68.3590    0.2090    2.4340    5.8626    3.7471 
1557.5280   72.6590   68.1540    0.1920    2.4560    5.0936    4.7538 
1557.6804   66.3000   67.1990    0.1830    2.4730    6.7491    5.0416 
1557.8328   64.7730   66.3900    0.1800    2.4830    6.8249    6.5386 
1557.9852   66.0750   65.7400    0.1720    2.4790    6.3350    6.0379 
1558.1376   67.6950   65.1670    0.1870    2.4670    3.9248    4.5117 
1558.2900   69.6390   64.7480    0.1850    2.4610    4.0425    4.3264 
1558.4424   68.8980   63.4800    0.1910    2.4700    6.3219    3.4372 
1558.5948   68.3650   61.8710    0.1810    2.4800    6.9198    4.4088 
1558.7472   66.4010   61.5880    0.1620    2.5100   10.8519    5.2581 
1558.8996   63.4080   61.1580    0.1300    2.5430   11.4392    8.3179 
1559.0520   62.9700   58.1190    0.1110    2.5670   15.9150    5.4188 
1559.2044   65.6800   60.6750    0.1090    2.5800   12.5178    5.0738 
1559.3568   65.5530   62.7660    0.1150    2.6010    7.8769    8.8639 
1559.5092   65.0170   77.2670    0.1200    2.6350    8.9154   19.0487 
1559.6616   68.3250   91.7680    0.1260    2.6330   18.2098   13.0338 
1559.8140   81.4370  106.2690    0.1620    2.5380   17.5337    2.5349 
1559.9664  103.2200  110.0840    0.2450    2.4040    7.5603    0.6832 
1560.1188  128.4060  112.3820    0.3330    2.3230    4.0132    0.4168 
1560.2712  133.1620  117.6800    0.4000    2.3240    3.2601    0.4032 
1560.4236  133.9100  120.6750    0.4740    2.3430    2.4653    0.5121 
1560.5760  139.6670  123.4130    0.5086    2.3270    2.3541    0.6396 
1560.7284  147.6290  107.9620    0.4199    2.2990    2.2496    0.6140 
1560.8808  157.1560  111.8480    0.4452    2.2790    2.1150    0.5344 
1561.0332  159.5600  114.8220    0.4626    2.2710    2.0263    0.5073 
1561.1856  161.2380  116.4990    0.4460    2.2660    2.0345    0.4578 
1561.3380  159.4940  117.1150    0.4390    2.2750    2.0109    0.4494 
1561.4904  159.6580  117.6810    0.4820    2.2680    2.0240    0.4403 
1561.6428  162.7480  117.5800    0.4900    2.2390    2.1397    0.3991 
1561.7952  158.8000  117.4290    0.4570    2.1830    2.4756    0.3335 
1561.9476  151.3720  116.6270    0.3490    2.2100    2.8469    0.2834 
1562.1000  134.5910  116.2040    0.3330    2.3600    3.7683    0.3535 
1562.2524  124.8290  111.3880    0.2890    2.5150    5.8706    0.6574 
1562.4048  113.7600   96.9410    0.2722    2.5950    7.7912    1.9360 
1562.5572  110.8110   94.5330    0.2603    2.5790    5.2939    4.5180 
1562.7096  117.9780   92.1250    0.2740    2.5310    4.3001    4.0347 
1562.8620  124.8250   92.1250    0.2980    2.4590    4.6327    1.0115 
1563.0144  132.6080   92.1250    0.3161    2.3650    4.1385    0.8531 
1563.1668  147.3210   97.2240    0.3658    2.3000    2.9278    0.4944 
1563.3192  160.4010  106.0060    0.4287    2.2650    2.1369    0.4714 
1563.4716  169.1650  115.3540    0.4798    2.2640    2.0183    0.3874 
1563.6240  165.9080  115.2860    0.4757    2.2820    2.0409    0.4217 
1563.7764  170.8760  114.8450    0.4668    2.2980    2.0042    0.4899 
1563.9288  168.1370  115.1070    0.4704    2.2890    2.0802    0.5207 
1564.0812  171.7820  116.2680    0.4761    2.2860    2.0665    0.5438 
1564.2336  162.5940  116.1620    0.4750    2.2770    1.9406    0.5107 
1564.3860  161.0440  116.2250    0.4766    2.2910    2.0873    0.5275 
1564.5384  157.7020  115.7330    0.4751    2.2860    2.1062    0.5427 
1564.6908  160.5230  115.6820    0.4739    2.2960    2.1794    0.5556 
1564.8432  163.2530  115.6520    0.4742    2.2930    2.2182    0.5609 
1564.9956  160.2530  114.6320    0.4704    2.2940    2.2813    0.5695 
1565.1480  163.7970  114.0390    0.4673    2.2890    2.2802    0.5895 
1565.3004  162.9970  113.3020    0.4633    2.2920    2.2867    0.5943 
1565.4528  168.6280  112.7600    0.4596    2.2960    2.2913    0.5576 
1565.6052  163.2530  113.0730    0.4616    2.3010    2.3217    0.5160 
1565.7576  159.2940  113.5390    0.4540    2.2900    2.2278    0.5012 
1565.9100  153.5950  113.7380    0.4663    2.3010    2.2901    0.5260 
1566.0624  153.9210  113.8710    0.4636    2.3140    2.2148    0.5404 
1566.2148  152.1370  113.9200    0.4890    2.3290    2.2384    0.5235 
1566.3672  151.0080  114.1610    0.4860    2.2910    2.2075    0.4863 
1566.5196  144.2330  115.3990    0.4900    2.2550    1.9850    0.3356 
1566.6720  141.0880  115.8030    0.4830    2.2180    1.8823    0.2461 
1566.8244  147.4990  117.5610    0.4610    2.2240    1.9368    0.2553 
1566.9768  164.6010  117.6620    0.4790    2.2360    1.9581    0.3622 
1567.1292  187.6880  117.7150    0.4790    2.2500    2.1175    0.5900 
1567.2816  196.3600  116.5210    0.4750    2.2660    2.1332    0.6830 
1567.4340  189.2750  115.9760    0.4310    2.2850    2.0791    0.6365 
1567.5864  167.4870  115.1130    0.4210    2.3010    2.0401    0.5693 
1567.7388  146.4470  113.4380    0.4100    2.3400    2.2068    0.5221 
1567.8912  132.5170   85.7300    0.3730    2.3920    2.8436    0.5166 
1568.0436  123.9670   84.3480    0.2940    2.4580    4.9485    0.6113 
1568.1960  112.1370   84.3160    0.2650    2.5290    5.9590    0.9352 
1568.3484  108.1140   83.0980    0.2470    2.5550    5.4270    2.3268 
1568.5008  106.9430   81.8960    0.2370    2.5720    4.4269    3.7370 
1568.6532  112.3300   81.3780    0.2150    2.5490    4.1905    4.1645 
1568.8056  109.8510   80.4260    0.1980    2.5510    3.9610    4.0440 
1568.9580  104.3040   80.1490    0.1990    2.5690    4.4764    5.0090 
1569.1104   96.2160   78.6560    0.1910    2.5930    5.4334    6.1708 
1569.2628   95.5020   78.4710    0.1890    2.6010    4.9999    6.1700 
1569.4152   98.1360   79.1900    0.1910    2.5920    4.7611    4.9617 
1569.5676  101.7390   79.1140    0.1910    2.5780    4.8418    4.5078 
1569.7200  103.4610   78.2000    0.1950    2.5760    5.0145    4.5028 
1569.8724  103.5240   78.8440    0.1850    2.5780    5.0742    4.6412 
1570.0248  100.4300   79.6050    0.1910    2.5790    4.9893    4.7228 
1570.1772  108.5750   80.1490    0.1830    2.5750    4.8919    4.6366 
1570.3296  107.5480   81.0750    0.2010    2.5640    4.7318    4.4537 
1570.4820  114.2850   82.3650    0.2060    2.5610    4.8034    4.3402 
1570.6344  117.9350   82.8060    0.2250    2.5530    4.7426    3.9001 
1570.7868  121.4060   83.4420    0.2300    2.5450    4.2737    3.5979 
1570.9392  117.6610   83.8150    0.2290    2.5290    4.0461    3.2306 
1571.0916  107.9350   83.6670    0.2290    2.5120    3.6930    2.9063 
1571.2440  108.5640   83.4810    0.2320    2.5030    3.4669    2.5685 
1571.3964  111.7130   83.0580    0.2330    2.5030    3.9318    2.6091 
1571.5488  117.9770   83.0950    0.2270    2.4990    3.7095    2.7802 
1571.7012  120.5710   80.9220    0.2350    2.5000    3.3311    2.4374 
1571.8536  123.8660   80.5930    0.2310    2.5090    4.2922    2.4006 
1572.0060  121.2600   81.6040    0.2270    2.5300    6.3888    2.5386 
