~VERSION INFORMATION
 VERS.                 2.0:   CWLS LOG ASCII STANDARD - VERSION 2.0
 WRAP.                  NO:   SINGLE LINE PER DEPTH STEP
 CREA.                 11/14/2024 5:53:38 PM
#CREATED USING IP VERSION 4.1.2012.198 BY ADMIN ON 11/14/2024 5:53:38 PM
~WELL INFORMATION
#MNEM.UNIT       DATA                          DESCRIPTION MNEMONIC
#---------      ---------------------------   --------------------------
 STRT    .M         1399.9464                 : START DEPTH
 STOP    .M         1650.0348                 : STOP DEPTH
 STEP    .M         0.1524                    : STEP VALUE
 NULL    .      -999.0000                     : NULL VALUE
 SRVC    .      SCH                           : Service Company/Logging company
 DATE    .      11/14/2024                    : LAS file Creation Date
 WELL    .      DD2X                          : Well Name
 COMP    .      Lam Son JOC                   : Company
 FLD     .      Dong Do                       : Field
 STATE   .      Viet Nam                      : State
 COUNT   .      Viet Nam                      : Country
 API     .      6                             : API Number
 UWI     .      6                             : Unique Well Identifier (UWI)
 LOC     .      Location                      : Location
 LATI    .      0.1217883333                  : Latitude/Northing
 LONG    .      0.5657158332                  : Longitude/Easting
 PDAT    .      Mean Sea Level                : Permanent Datum
 EPDAT   .      0.000000                      : Elevation of Permanent Datum
 LGMEA   .      Rotary Table                  : Log Measured from
 APDAT   .      28.799999                     : Elevation Above Permanent Datum
 RWS     .      0                             : Def_Rw
 WST     .      0                             : Def_Rwt
 UTMZ    .      31                            : UTM Zone
 CNTY    .      Shelf Explorer                : County
 PROV    .      Vung Tau                      : Province
 SRVC    .      SCH                           : Contractor
~CURVE INFORMATION
#MNEM              UNIT       API CODE   Curve Type        Comments
#----------  --------------- ----------  --------------- -----------
 DEPTH      .M                         : Depth           
 GR         .gAPI                      : GammaRay        
 DTC        .us/ft                     : Sonic           
 NPHI       .dec                       : Neutron         
 RHOB       .g/cc                      : Density         
 RT_HRLT    .OHMM                      :                 HRLT Computed True Resistivity {F13.4}
 RXOZ       .OHMM                      : MicroRes        MCFL Standard Resolution Invaded Zone Resistivity {F13.4}
~A  DEPTH     GR       DTC       NPHI      RHOB    RT_HRLT     RXOZ   
1399.9464  138.1560  104.5620    0.3500    2.1930    2.1135    0.2850 
1400.0988  142.4260  110.8980    0.3618    2.2640    2.3946    0.3432 
1400.2512  135.5050  110.9300    0.3581    2.2910    2.4693    0.5322 
1400.4036  135.7250  110.7870    0.3617    2.2623    2.3516    0.4305 
1400.5560  131.8900  110.6420    0.3637    2.2444    2.2310    0.3703 
1400.7084  134.7700  110.1950    0.3616    2.2482    2.0869    0.2954 
1400.8608  139.8310  110.1910    0.3716    2.1780    2.0296    0.2233 
1401.0132  137.4670  110.1320    0.3672    2.2079    2.4202    0.2486 
1401.1656  127.8300  108.7240    0.3563    2.2500    2.5951    0.3171 
1401.3180  127.5600  107.2890    0.3447    2.2970    2.7520    0.5538 
1401.4704  131.8840  106.5560    0.3421    2.2980    2.7252    0.5058 
1401.6228  141.8310  106.7000    0.3398    2.3180    2.7434    0.5664 
1401.7752  145.1820  106.0380    0.3360    2.3290    2.7797    0.5230 
1401.9276  145.6120  106.6060    0.3406    2.3100    2.6060    0.4456 
1402.0800  136.6320  108.9500    0.3489    2.3080    2.6725    0.4131 
1402.2324  135.0050  109.2880    0.3475    2.3260    2.7034    0.4399 
1402.3848  138.6620  109.7380    0.3437    2.3630    2.4181    0.5066 
1402.5372  133.9740  110.0130    0.3447    2.3630    2.9783    0.6096 
1402.6896  131.9950  110.2650    0.3475    2.3490    3.0191    0.7144 
1402.8420  131.3940  106.9190    0.3445    2.2900    2.4612    0.6006 
1402.9944  140.7920  105.5710    0.3435    2.2640    2.3925    0.3850 
1403.1468  138.9300  104.1650    0.3366    2.2790    2.8989    0.4340 
1403.2992  138.2880  103.6000    0.3150    2.3670    3.6982    0.6990 
1403.4516  136.9700  102.5360    0.2890    2.4310    3.9049    1.4251 
1403.6040  132.9610   95.8800    0.2630    2.4600    3.0226    1.6491 
1403.7564  131.8410   93.3960    0.2747    2.4610    3.5391    1.6224 
1403.9088  126.2080   92.6450    0.2712    2.4680    3.8808    1.7677 
1404.0612  124.1970   92.1440    0.2690    2.4720    4.0237    1.8353 
1404.2136  123.6190   91.3060    0.2675    2.4620    3.3699    1.8069 
1404.3660  134.2580   91.6960    0.2747    2.4190    1.7685    1.5821 
1404.5184  141.0110   91.3400    0.2630    2.4030    1.9572    1.4120 
1404.6708  146.0510   96.0060    0.2937    2.3870    2.6057    1.4304 
1404.8232  147.4100   96.1870    0.2960    2.3460    3.2395    1.3648 
1404.9756  145.8240   96.8670    0.3154    2.2510    2.5968    0.5349 
1405.1280  140.9590   98.3590    0.3262    2.2100    2.3845    0.3602 
1405.2804  133.2880   99.9800    0.3293    2.2280    2.2611    0.3466 
1405.4328  139.6980  101.8420    0.3255    2.3010    2.5753    0.5804 
1405.5852  142.7290  107.4300    0.3391    2.3400    2.6616    0.9807 
1405.7376  145.3960  110.3080    0.3460    2.3580    2.4368    1.5412 
1405.8900  150.3270  112.3170    0.3450    2.3240    2.2698    1.0958 
1406.0424  155.0760  113.5210    0.3430    2.2160    1.7585    0.5316 
1406.1948  158.1930  115.5850    0.3740    2.1230    1.6221    0.3630 
1406.3472  154.9360  118.2170    0.4140    2.0770    1.7297    0.3058 
1406.4996  154.8190  120.5310    0.4185    2.1020    1.9064    0.3542 
1406.6520  151.9800  120.6770    0.4153    2.1270    1.7547    0.3386 
1406.8044  147.2670  121.9070    0.4214    2.1150    1.6427    0.2945 
1406.9568  146.0630  118.0750    0.4093    2.1060    1.6847    0.3126 
1407.1092  144.3950  117.8270    0.4121    2.0810    1.8502    0.3188 
1407.2616  144.2220  119.0260    0.4170    2.0760    1.9701    0.3267 
1407.4140  139.9040  109.9930    0.3838    2.0880    2.0990    0.3110 
1407.5664  131.8440  109.9450    0.3680    2.1240    2.3808    0.3306 
1407.7188  125.9150  108.9660    0.3220    2.1730    2.8525    0.4068 
1407.8712  124.0840  104.0510    0.3190    2.1790    2.9232    0.4592 
1408.0236  124.9710  103.0310    0.3370    2.2280    3.0722    0.5130 
1408.1760  123.8100  101.6820    0.3257    2.2960    3.2013    0.5321 
1408.3284  120.6660   95.6150    0.2935    2.3790    3.4436    0.6048 
1408.4808  112.5500   93.0610    0.2792    2.4200    3.9495    0.7234 
1408.6332  110.4710   90.6710    0.2642    2.4710    5.6356    1.0902 
1408.7856  110.8590  116.9290    0.2500    2.5350    6.1865    2.4701 
1408.9380  113.8060  113.0010    0.2300    2.5410    3.9466    4.3100 
1409.0904  122.0900  115.7580    0.2320    2.4910    4.6562    2.0220 
1409.2428  127.5810  122.1230    0.2870    2.4190    3.5365    1.2969 
1409.3952  135.8940  117.6280    0.3570    2.3660    2.6411    0.8582 
1409.5476  142.3700  128.3720    0.4166    2.2990    2.1163    0.5679 
1409.7000  144.8790  127.7150    0.4221    2.2470    2.0755    0.4709 
1409.8524  152.1710  128.7550    0.4289    2.2250    2.3370    0.4370 
1410.0048  148.9330  130.1000    0.4220    2.2290    2.2409    0.4741 
1410.1572  148.8850  129.4260    0.4309    2.2270    2.3537    0.4644 
1410.3096  151.5090  131.6430    0.4394    2.2210    2.2701    0.4754 
1410.4620  159.0780  131.8100    0.4420    2.2080    2.0886    0.4686 
1410.6144  170.5060  131.5010    0.4440    2.1870    2.0367    0.4287 
1410.7668  171.4560  132.4460    0.4506    2.1650    1.8864    0.3573 
1410.9192  176.5950  133.3900    0.4558    2.1520    1.8418    0.2968 
1411.0716  175.0560  134.3340    0.4552    2.1780    1.7839    0.2933 
1411.2240  160.2880  136.0340    0.4474    2.2690    1.7898    0.4231 
1411.3764  146.1380  134.9010    0.3800    2.3520    1.6537    0.9603 
1411.5288  131.6810  131.7850    0.3120    2.4310    2.0462    3.7689 
1411.6812  144.8510  126.6860    0.3000    2.4490    1.7695    2.1744 
1411.8336  158.0060  123.0030    0.3090    2.4390    2.0862    1.2293 
1411.9860  170.4170  110.5380    0.3408    2.4030    2.2288    0.8799 
1412.1384  167.0930  107.7050    0.3370    2.3620    2.2809    0.9558 
1412.2908  171.1970  109.2630    0.3441    2.3490    1.8516    0.9022 
1412.4432  162.3280  110.8220    0.3516    2.3340    1.8653    0.7422 
1412.5956  150.4230  115.6370    0.3678    2.3350    2.0270    0.6296 
1412.7480  123.8600  120.4530    0.3100    2.3640    2.4125    0.7630 
1412.9004  109.2030  110.2550    0.2520    2.4410    3.6135    1.1442 
1413.0528   98.5810  100.0570    0.2290    2.5110    6.6185    2.0892 
1413.2052  114.3900   98.6400    0.2360    2.5230    3.3336    1.2300 
1413.3576  134.2840   98.8290    0.2850    2.4220    1.8322    0.7382 
1413.5100  158.7690   99.0180    0.3100    2.2920    1.7531    0.4719 
1413.6624  156.8740   99.2070    0.3283    2.2160    2.0536    0.4712 
1413.8148  153.4140  110.2550    0.3680    2.1920    2.2197    0.4906 
1413.9672  144.4650  111.3880    0.3756    2.1790    2.4694    0.3763 
1414.1196  143.6360  113.1880    0.3803    2.1900    2.6112    0.3662 
1414.2720  143.6700  113.5460    0.3758    2.2300    2.8604    0.3570 
1414.4244  151.3260  113.0280    0.3716    2.2470    2.2345    0.4629 
1414.5768  158.8860  113.0050    0.3749    2.2230    1.8321    0.4215 
1414.7292  162.3450  111.6560    0.3737    2.1990    1.8742    0.4396 
1414.8816  162.0930  110.0690    0.3649    2.2220    1.9027    0.4577 
1415.0340  156.0060  108.7140    0.3547    2.2610    2.2974    0.5313 
1415.1864  148.7010  108.4570    0.3476    2.3050    2.9882    0.6418 
1415.3388  141.6080  109.0160    0.3480    2.3160    2.9549    0.6774 
1415.4912  138.7890  111.1750    0.3625    2.2660    2.8846    0.5487 
1415.6436  140.1780  113.3340    0.3738    2.2390    2.4725    0.4204 
1415.7960  144.9260  114.7790    0.3796    2.2330    2.2189    0.4450 
1415.9484  148.5020  115.1570    0.3743    2.2790    2.2277    0.5737 
1416.1008  155.7810  124.4710    0.4059    2.2810    2.0325    0.8133 
1416.2532  149.4600  124.2260    0.4080    2.2610    1.8332    0.7787 
1416.4056  150.4040  120.2280    0.3989    2.2290    1.7091    0.7262 
1416.5580  154.0560  121.9940    0.4075    2.2120    1.6902    0.6898 
1416.7104  161.3400  121.7860    0.4056    2.2200    1.7263    0.6575 
1416.8628  163.6380  123.8320    0.4087    2.2470    1.7597    0.6874 
1417.0152  162.4940  120.3680    0.3900    2.2690    2.1199    0.7059 
