~VERSION INFORMATION
 VERS.                 2.0:   CWLS LOG ASCII STANDARD - VERSION 2.0
 WRAP.                  NO:   SINGLE LINE PER DEPTH STEP
 CREA.                 11/14/2024 5:53:38 PM
#CREATED USING IP VERSION 4.1.2012.198 BY ADMIN ON 11/14/2024 5:53:38 PM
~WELL INFORMATION
#MNEM.UNIT       DATA                          DESCRIPTION MNEMONIC
#---------      ---------------------------   --------------------------
 STRT    .M         1399.9464                 : START DEPTH
 STOP    .M         1650.0348                 : STOP DEPTH
 STEP    .M         0.1524                    : STEP VALUE
 NULL    .      -999.0000                     : NULL VALUE
 SRVC    .      SCH                           : Service Company/Logging company
 DATE    .      11/14/2024                    : LAS file Creation Date
 WELL    .      DD2X                          : Well Name
 COMP    .      Lam Son JOC                   : Company
 FLD     .      Dong Do                       : Field
 STATE   .      Viet Nam                      : State
 COUNT   .      Viet Nam                      : Country
 API     .      6                             : API Number
 UWI     .      6                             : Unique Well Identifier (UWI)
 LOC     .      Location                      : Location
 LATI    .      0.1217883333                  : Latitude/Northing
 LONG    .      0.5657158332                  : Longitude/Easting
 PDAT    .      Mean Sea Level                : Permanent Datum
 EPDAT   .      0.000000                      : Elevation of Permanent Datum
 LGMEA   .      Rotary Table                  : Log Measured from
 APDAT   .      28.799999                     : Elevation Above Permanent Datum
 RWS     .      0                             : Def_Rw
 WST     .      0                             : Def_Rwt
 UTMZ    .      31                            : UTM Zone
 CNTY    .      Shelf Explorer                : County
 PROV    .      Vung Tau                      : Province
 SRVC    .      SCH                           : Contractor
~CURVE INFORMATION
#MNEM              UNIT       API CODE   Curve Type        Comments
#----------  --------------- ----------  --------------- -----------
 DEPTH      .M                         : Depth           
 GR         .gAPI                      : GammaRay        
 DTC        .us/ft                     : Sonic           
 NPHI       .dec                       : Neutron         
 RHOB       .g/cc                      : Density         
 RT_HRLT    .OHMM                      :                 HRLT Computed True Resistivity {F13.4}
 RXOZ       .OHMM                      : MicroRes        MCFL Standard Resolution Invaded Zone Resistivity {F13.4}
~A  DEPTH     GR       DTC       NPHI      RHOB    RT_HRLT     RXOZ   
# ...
1589.3796   69.2590   55.8810    0.0860    2.5580   19.5782   15.0545 
1589.5320   71.8860   55.4380    0.0930    2.5030   17.9041   42.5256 
1589.6844   70.2620   55.2940    0.0950    2.4880   32.2241  124.4453 
1589.8368   66.7030   55.4600    0.0930    2.5290   28.7041   95.7673 
1589.9892   64.8650   59.0620    0.0930    2.5870   25.3781   83.6215 
1590.1416   65.9250   60.7560    0.0830    2.6370   25.6720   83.6451 
1590.2940   67.6730   60.1130    0.0700    2.6570   33.1405   90.1910 
1590.4464   66.1210   98.9240    0.0640    2.6570   34.2415  103.7736 
1590.5988   67.2730  105.1560    0.0860    2.6350   37.8987  115.6464 
1590.7512   81.1330  112.2380    0.1360    2.5760    9.5528    4.4389 
1590.9036  102.4000  114.0790    0.2340    2.4700    2.9047    1.4302 
1591.0560  130.0730  115.9210    0.2880    2.3950    2.8057    0.7885 
1591.2084  142.6420  115.6370    0.3240    2.3460    2.6250    0.6503 
1591.3608  150.6000  115.3540    0.4880    2.3320    2.4183    0.5513 
1591.5132  154.9380  114.0320    0.5030    2.3220    2.3717    0.5570 
1591.6656  161.2180  112.7100    0.4860    2.3370    2.2877    0.5222 
1591.8180  160.5630  111.3880    0.4480    2.3730    2.4924    0.6837 
1591.9704  152.6620  107.7050    0.4320    2.4050    2.9146    0.9078 
1592.1228  142.2820  105.7220    0.3890    2.4200    2.9591    1.3150 
1592.2752  131.3080  103.7390    0.3410    2.4140    3.3014    1.0577 
1592.4276  125.1900  101.7560    0.3260    2.4170    3.2245    0.8918 
1592.5800  118.5750   99.7660    0.3370    2.4690    3.5660    0.9540 
1592.7324  116.1950   89.9170    0.2890    2.5630    5.6795    1.6585 
1592.8848  110.2090   86.8180    0.2020    2.6220    5.6023    3.3953 
1593.0372  109.1890   87.2550    0.1700    2.6300    3.7816    5.0951 
1593.1896  112.5020   87.8210    0.1760    2.5590    3.5397    4.0790 
1593.3420  117.0380   88.0930    0.2130    2.4740    3.2091    3.1237 
1593.4944  126.9380   89.2060    0.2540    2.4120    2.6963    3.3457 
1593.6468  134.8560   90.2350    0.2780    2.4170    2.8789    3.6742 
1593.7992  138.4170   90.8110    0.2660    2.4270    3.8040    1.1368 
1593.9516  136.2190   92.2210    0.2580    2.4000    3.7665    0.6828 
1594.1040  137.4010   92.5730    0.2820    2.3790    3.7432    0.5032 
1594.2564  144.1760   92.2450    0.2650    2.4200    3.9622    0.6753 
1594.4088  149.8080   91.7910    0.2510    2.4870    4.6620    1.1975 
1594.5612  143.9190   91.3680    0.2410    2.5180    3.6758    2.9007 
1594.7136  141.3660   91.7480    0.2570    2.5070    3.7439    3.4404 
1594.8660  138.0520   90.5370    0.2560    2.4970    3.7306    3.1467 
1595.0184  135.0240   89.6230    0.2660    2.4900    3.6161    3.0175 
1595.1708  133.5260   88.9530    0.2440    2.4800    4.0580    2.9394 
1595.3232  136.2780   88.8800    0.2570    2.4870    4.1632    1.8118 
1595.4756  131.2870   88.3150    0.2430    2.4940    3.7500    1.2648 
1595.6280  122.1240   88.8880    0.2260    2.5110    4.2466    1.2912 
1595.7804  108.3940   88.7650    0.1930    2.5130    4.7881    2.1004 
1595.9328  115.0480   88.8440    0.2000    2.5110    4.7512    3.3966 
1596.0852  119.8130   89.1740    0.2140    2.5180    5.1231    2.7474 
1596.2376  130.6760   90.0470    0.2380    2.5040    4.5814    2.8756 
1596.3900  132.2060   90.6800    0.2550    2.5020    4.2327    2.0202 
1596.5424  130.6510   91.5470    0.2700    2.4730    3.4635    2.0679 
1596.6948  116.4440   91.7810    0.2640    2.4380    2.5490    1.6011 
1596.8472  102.0260   91.8760    0.2800    2.3940    2.2624    1.5149 
1596.9996   96.3650   93.2240    0.2810    2.3610    2.4737    1.3164 
1597.1520   95.2700   90.1260    0.2850    2.3480    2.8158    1.4616 
1597.3044   92.3430   90.1930    0.2620    2.3490    2.8310    1.4977 
1597.4568   90.2590   87.8350    0.2490    2.3530    2.8131    1.5191 
1597.6092   92.5510   84.9230    0.2420    2.3660    3.3258    1.6970 
1597.7616   90.2330   86.2560    0.2160    2.4180    8.8788    2.6337 
1597.9140   95.8900   88.3230    0.1940    2.4660    3.9662    3.5226 
1598.0664  102.8560   87.8950    0.1840    2.4760    4.1043    2.7820 
1598.2188  111.8760   88.2250    0.2110    2.4370    3.0946    2.5000 
1598.3712  113.9500   92.1570    0.2420    2.3980    2.9202    1.8748 
1598.5236  107.0340   91.4630    0.3060    2.3610    2.3226    1.1283 
1598.6760  107.5490   91.2740    0.3410    2.3300    1.6658    0.7827 
1598.8284  105.1920   90.7400    0.3260    2.3110    1.9471    0.7114 
1598.9808  107.2320   92.1520    0.2820    2.3640    3.0108    0.8962 
1599.1332  106.3800   90.6410    0.2450    2.4410    4.1629    1.4104 
1599.2856  106.0440   89.6050    0.2270    2.4950    5.7560    2.5285 
1599.4380  100.9640   89.4350    0.2290    2.4920    3.7752    2.9906 
1599.5904   94.5380   87.5610    0.2660    2.4330    4.4889    1.9483 
1599.7428   91.6070   87.2670    0.3160    2.3770    3.1933    1.3347 
1599.8952   93.7420   87.4050    0.3340    2.3420    2.2784    1.0177 
1600.0476   97.0040   88.3290    0.3210    2.3540    2.3327    1.0714 
1600.2000  100.2580   90.1880    0.2740    2.4060    3.5833    1.4057 
1600.3524  106.4570   91.9260    0.2590    2.4660    4.2303    2.2720 
1600.5048  110.3810   91.3320    0.2360    2.4860    3.9696    3.1131 
1600.6572  107.7850   92.4270    0.2610    2.4510    4.5920    1.8501 
1600.8096   98.7750   93.8840    0.2770    2.3710    2.2216    1.0154 
1600.9620   92.0140   95.9700    0.2890    2.3080    1.7193    0.7119 
1601.1144   89.1740   96.7390    0.2940    2.2700    1.7798    0.6139 
1601.2668   84.7220   97.7460    0.3000    2.2600    1.6620    0.5989 
1601.4192   83.6540   98.1130    0.3150    2.2610    1.6579    0.5951 
1601.5716   76.8090   97.8280    0.3250    2.2670    1.7670    0.6899 
1601.7240   80.5170   97.9900    0.3160    2.2700    2.0034    0.6789 
1601.8764   81.7340   97.8670    0.3090    2.2600    1.6956    0.6138 
1602.0288   82.4530   97.5400    0.3070    2.2420    1.6261    0.5637 
1602.1812   86.0060   98.0070    0.3330    2.2460    1.7017    0.5813 
1602.3336   89.2750   97.6670    0.3190    2.2630    1.6776    0.6221 
1602.4860   96.7610   97.5920    0.3370    2.2760    1.6074    0.5960 
1602.6384   94.8610   97.4340    0.3210    2.2620    1.5972    0.5799 
1602.7908   91.3690   96.6950    0.3290    2.2620    1.6176    0.5319 
1602.9432   87.3270   96.7950    0.3080    2.2690    2.3553    0.6554 
1603.0956   85.6900   96.8640    0.2900    2.2720    2.9938    0.8690 
1603.2480   80.4050   96.9350    0.3050    2.2560    2.7087    1.2077 
1603.4004   76.5060   97.4000    0.3120    2.2400    2.6876    1.0342 
1603.5528   70.6900   97.6850    0.3150    2.2350    2.7591    1.0078 
1603.7052   70.9190   97.3530    0.3000    2.2280    2.4074    1.0807 
1603.8576   72.4570   97.4880    0.3180    2.2270    2.0445    1.0742 
1604.0100   78.9760   97.9770    0.3210    2.2350    1.9678    0.9363 
1604.1624   81.4540   97.6240    0.2970    2.2520    2.3506    0.9096 
1604.3148   82.6190   97.0010    0.2730    2.2680    2.3919    0.9603 
1604.4672   81.3680   96.4150    0.2800    2.2650    1.9519    0.8585 
1604.6196   78.5170   94.2930    0.3120    2.2510    2.1980    0.7502 
1604.7720   76.7370   94.0600    0.2890    2.2350    2.2303    0.7468 
1604.9244   75.0330   93.4570    0.2820    2.2570    1.9367    0.8421 
1605.0768   76.7760   92.4600    0.2770    2.3050    2.2573    0.9189 
1605.2292   79.5620   91.8980    0.2760    2.3540    2.5618    1.0348 
1605.3816   77.3390   90.5840    0.2630    2.3680    3.0162    1.2592 
1605.5340   76.7070   86.0950    0.2430    2.3490    2.0467    1.2037 
1605.6864   73.8120   84.6820    0.2650    2.3360    1.6279    1.1224 
1605.8388   73.1760   83.4180    0.2380    2.3530    2.1423    1.0113 
1605.9912   69.3340   81.5910    0.2010    2.3960    2.7885    1.4138 
1606.1436   67.1220   79.9390    0.1910    2.4300    4.0895    1.8710 
1606.2960   65.1170   80.4220    0.1970    2.4330    3.6940    2.9021 
1606.4484   67.6030   79.3290    0.2190    2.4120    4.0861    2.4951 
