~VERSION INFORMATION
 VERS.                 2.0:   CWLS LOG ASCII STANDARD - VERSION 2.0
 WRAP.                  NO:   SINGLE LINE PER DEPTH STEP
 CREA.                 11/14/2024 5:53:38 PM
#CREATED USING IP VERSION 4.1.2012.198 BY ADMIN ON 11/14/2024 5:53:38 PM
~WELL INFORMATION
#MNEM.UNIT       DATA                          DESCRIPTION MNEMONIC
#---------      ---------------------------   --------------------------
 STRT    .M         1399.9464                 : START DEPTH
 STOP    .M         1650.0348                 : STOP DEPTH
 STEP    .M         0.1524                    : STEP VALUE
 NULL    .      -999.0000                     : NULL VALUE
 SRVC    .      SCH                           : Service Company/Logging company
 DATE    .      11/14/2024                    : LAS file Creation Date
 WELL    .      DD2X                          : Well Name
 COMP    .      Lam Son JOC                   : Company
 FLD     .      Dong Do                       : Field
 STATE   .      Viet Nam                      : State
 COUNT   .      Viet Nam                      : Country
 API     .      6                             : API Number
 UWI     .      6                             : Unique Well Identifier (UWI)
 LOC     .      Location                      : Location
 LATI    .      0.1217883333                  : Latitude/Northing
 LONG    .      0.5657158332                  : Longitude/Easting
 PDAT    .      Mean Sea Level                : Permanent Datum
 EPDAT   .      0.000000                      : Elevation of Permanent Datum
 LGMEA   .      Rotary Table                  : Log Measured from
 APDAT   .      28.799999                     : Elevation Above Permanent Datum
 RWS     .      0                             : Def_Rw
 WST     .      0                             : Def_Rwt
 UTMZ    .      31                            : UTM Zone
 CNTY    .      Shelf Explorer                : County
 PROV    .      Vung Tau                      : Province
 SRVC    .      SCH                           : Contractor
~CURVE INFORMATION
#MNEM              UNIT       API CODE   Curve Type        Comments
#----------  --------------- ----------  --------------- -----------
 DEPTH      .M                         : Depth           
 GR         .gAPI                      : GammaRay        
 DTC        .us/ft                     : Sonic           
 NPHI       .dec                       : Neutron         
 RHOB       .g/cc                      : Density         
 RT_HRLT    .OHMM                      :                 HRLT Computed True Resistivity {F13.4}
 RXOZ       .OHMM                      : MicroRes        MCFL Standard Resolution Invaded Zone Resistivity {F13.4}
~A  DEPTH     GR       DTC       NPHI      RHOB    RT_HRLT     RXOZ   
# ...
1641.0432   69.1610   63.8710    0.1060    2.5540   12.5742   13.7351 
1641.1956   68.5170   65.8740    0.1160    2.5660    8.8839    6.9457 
1641.3480   64.1000   69.3830    0.1080    2.6020    9.7836    6.9393 
1641.5004   65.7470   73.6860    0.0920    2.6420   10.8352   11.4070 
1641.6528   65.1380   80.1110    0.0880    2.6550   15.1076   46.1887 
1641.8052   68.3280   80.7940    0.1140    2.6130    5.5592    4.0418 
1641.9576   68.0930   77.4110    0.1650    2.5370    2.4392    1.0213 
1642.1100   66.0360   81.3980    0.2360    2.4730    1.3580    0.5705 
1642.2624   68.1850   83.8560    0.2740    2.4580    1.2068    0.4293 
1642.4148   69.3240   88.1370    0.2890    2.4880    1.3777    0.4469 
1642.5672   74.7410   88.8790    0.2700    2.4920    2.4145    0.5752 
1642.7196   79.9200   87.9430    0.2620    2.4670    2.5123    0.7750 
1642.8720   82.3950   89.0940    0.2420    2.4110    2.4567    0.7724 
1643.0244   84.3150   88.6030    0.2490    2.3590    2.4351    0.5831 
1643.1768   83.8600   91.8090    0.2470    2.3130    2.2100    0.4909 
1643.3292   88.1720   95.5400    0.2760    2.2850    2.1424    0.4441 
1643.4816   91.7300   95.5360    0.2930    2.2890    2.1542    0.4278 
1643.6340   92.3880   96.2430    0.3090    2.3080    2.0941    0.4340 
1643.7864   85.1030   99.6410    0.3100    2.3330    2.1937    0.4466 
1643.9388   79.6730   99.9840    0.3070    2.3180    2.1535    0.4353 
1644.0912   79.6060  100.4100    0.3070    2.2640    1.8602    0.3938 
1644.2436   83.0740  100.6260    0.2870    2.2050    1.7048    0.3487 
1644.3960   87.7580  101.0240    0.2830    2.1880    1.5910    0.3308 
1644.5484   82.9030  100.0200    0.2980    2.1980    1.6494    0.3354 
1644.7008   79.7610   99.5500    0.3260    2.2220    1.7284    0.3499 
1644.8532   76.9370   99.0130    0.3440    2.2370    1.7643    0.3674 
1645.0056   78.9250   97.5720    0.3190    2.2630    1.9355    0.3663 
1645.1580   77.6990   96.0820    0.3270    2.2880    1.7159    0.3730 
1645.3104   77.0600   96.6570    0.3080    2.3000    1.6989    0.3865 
1645.4628   76.4080   96.0100    0.2870    2.3280    1.6442    0.3914 
1645.6152   76.8200   95.3620    0.2900    2.3430    1.6072    0.3890 
1645.7676   76.6800   94.7150    0.2990    2.3690    1.5547    0.3912 
1645.9200   77.1510   94.0670    0.2870    2.3730    1.4601    0.4208 
1646.0724   84.0900   93.4200    0.2760    2.3990    1.4288    0.4152 
1646.2248   94.6700   92.7720    0.2760    2.4360    1.4486    0.5281 
1646.3772  115.6790   88.7250    0.2670    2.4730    3.3751    0.8092 
1646.5296  130.2100   81.9420    0.2540    2.5450    3.8518    2.3795 
1646.6820  128.1230   76.4890    0.2070    2.6210    4.0774    4.3769 
1646.8344  110.5220   73.1590    0.1550    2.6700   10.3794   11.0788 
1646.9868   96.7550   69.0360    0.1320    2.6520   10.2039   13.2664 
1647.1392   95.7630   67.0900    0.1200    2.6210   11.2965   12.0074 
1647.2916   95.6660   65.5350    0.1100    2.6110   13.1510   12.2687 
1647.4440   94.3030   64.8960    0.1030    2.6210   13.6913   13.1420 
1647.5964   91.9770   64.4510    0.0980    2.6250   17.0505   15.6825 
1647.7488   92.0330   65.0820    0.0990    2.6340   18.2128   21.8770 
1647.9012   97.8230   64.8260    0.1020    2.6340   16.4426   18.9488 
1648.0536  105.7240   65.1630    0.1260    2.6270    9.4448   12.8964 
1648.2060  107.3610   64.8430    0.1470    2.6020    9.5931    9.5890 
1648.3584  100.4740   64.4260    0.1590    2.5640    5.8172    4.9993 
1648.5108   92.0670   63.7070    0.1610    2.5470    4.4014    3.1587 
1648.6632   89.9140   62.5460    0.1490    2.5570    5.1291    3.0876 
1648.8156   97.0120   62.6600    0.1210    2.6060   23.8574    5.1825 
1648.9680   96.4900   61.8820    0.0960    2.6590   23.5455   16.1091 
1649.1204   94.6980   59.0930    0.0830    2.6910   30.5901   36.4970 
1649.2728   83.4660   58.3970    0.0730    2.6960   36.8739   36.9305 
1649.4252   75.7820   58.3090    0.0650    2.6840   33.6821   48.6880 
1649.5776   70.3490   57.6250    0.0620    2.6750   41.7611   54.2614 
1649.7300   70.3850   58.2370    0.0640    2.6600   34.8590   69.3806 
1649.8824   72.7060   58.2800    0.0680    2.6460   42.4960   30.2802 
1650.0348   73.6530   58.7490    0.0740    2.6310   28.2770   16.0657 
