~VERSION INFORMATION
 VERS.                 2.0:   CWLS LOG ASCII STANDARD - VERSION 2.0
 WRAP.                  NO:   SINGLE LINE PER DEPTH STEP
 CREA.                 11/14/2024 5:53:38 PM
#CREATED USING IP VERSION 4.1.2012.198 BY ADMIN ON 11/14/2024 5:53:38 PM
~WELL INFORMATION
#MNEM.UNIT       DATA                          DESCRIPTION MNEMONIC
#---------      ---------------------------   --------------------------
 STRT    .M         1399.9464                 : START DEPTH
 STOP    .M         1650.0348                 : STOP DEPTH
 STEP    .M         0.1524                    : STEP VALUE
 NULL    .      -999.0000                     : NULL VALUE
 SRVC    .      SCH                           : Service Company/Logging company
 DATE    .      11/14/2024                    : LAS file Creation Date
 WELL    .      DD2X                          : Well Name
 COMP    .      Lam Son JOC                   : Company
 FLD     .      Dong Do                       : Field
 STATE   .      Viet Nam                      : State
 COUNT   .      Viet Nam                      : Country
 API     .      6                             : API Number
 UWI     .      6                             : Unique Well Identifier (UWI)
 LOC     .      Location                      : Location
 LATI    .      0.1217883333                  : Latitude/Northing
 LONG    .      0.5657158332                  : Longitude/Easting
 PDAT    .      Mean Sea Level                : Permanent Datum
 EPDAT   .      0.000000                      : Elevation of Permanent Datum
 LGMEA   .      Rotary Table                  : Log Measured from
 APDAT   .      28.799999                     : Elevation Above Permanent Datum
 RWS     .      0                             : Def_Rw
 WST     .      0                             : Def_Rwt
 UTMZ    .      31                            : UTM Zone
 CNTY    .      Shelf Explorer                : County
 PROV    .      Vung Tau                      : Province
 SRVC    .      SCH                           : Contractor
~CURVE INFORMATION
#MNEM              UNIT       API CODE   Curve Type        Comments
#----------  --------------- ----------  --------------- -----------
 DEPTH      .M                         : Depth           
 GR         .gAPI                      : GammaRay        
 DTC        .us/ft                     : Sonic           
 NPHI       .dec                       : Neutron         
 RHOB       .g/cc                      : Density         
 RT_HRLT    .OHMM                      :                 HRLT Computed True Resistivity {F13.4}
 RXOZ       .OHMM                      : MicroRes        MCFL Standard Resolution Invaded Zone Resistivity {F13.4}
~A  DEPTH     GR       DTC       NPHI      RHOB    RT_HRLT     RXOZ   
# ...
1572.1584  118.1190   82.3740    0.2140    2.5430    7.0413    3.2091 
1572.3108  110.6670   82.6960    0.2350    2.5300    6.9878    3.2833 
1572.4632  102.9700   92.0390    0.2510    2.4910    8.4659    3.9036 
1572.6156   90.7300  100.7020    0.3030    2.4080   11.3037    2.3633 
1572.7680   84.2390  102.2740    0.3670    2.3040    7.5328    1.3676 
1572.9204   80.4610  103.8850    0.3880    2.2270    7.9760    0.9283 
1573.0728   83.8840  105.3140    0.3600    2.2050    7.9906    0.8291 
1573.2252   83.6020  106.3780    0.3490    2.2190    8.0838    0.8454 
1573.3776   84.1310  107.3430    0.3470    2.2340    7.8912    0.8727 
1573.5300   85.2990  107.4000    0.3430    2.2320    7.8540    0.8875 
1573.6824   83.8340  107.7860    0.3580    2.2130    8.3024    0.8344 
1573.8348   83.0290  107.3410    0.3420    2.1900   10.4058    0.8006 
1573.9872   79.3760  107.4310    0.3390    2.1780   13.3427    0.7885 
1574.1396   80.7930  107.4310    0.3330    2.1630   16.4956    0.8487 
1574.2920   76.3970  107.6710    0.3490    2.1630   16.2035    0.8265 
1574.4444   74.7250  107.1290    0.3400    2.1600   14.8132    0.8206 
1574.5968   71.2460  106.7390    0.3370    2.1700   13.4972    0.7899 
1574.7492   77.1420  106.6080    0.3250    2.1690   12.6962    0.7968 
1574.9016   78.8100  106.3410    0.3280    2.1670   12.5457    0.7463 
1575.0540   82.5940  106.2460    0.3550    2.1610   11.6177    0.7215 
1575.2064   78.7510  106.1950    0.3620    2.1590   12.9234    0.7056 
1575.3588   77.0660  105.9630    0.3700    2.1630   13.5843    0.7122 
1575.5112   76.9100  105.0530    0.3640    2.1730   13.6209    0.7017 
1575.6636   78.1680  103.6200    0.3850    2.1810   13.8669    0.7140 
1575.8160   76.4100  101.6560    0.3840    2.1890   12.5959    0.7273 
1575.9684   75.9120   97.9860    0.3880    2.1990   11.1380    0.7325 
1576.1208   78.4140   98.1150    0.3640    2.2200    9.9191    0.7376 
1576.2732   80.0290   97.3160    0.3420    2.2530   14.1313    0.9411 
1576.4256   80.0700   96.2200    0.3070    2.2780   17.9425    1.1327 
1576.5780   73.3570   93.7450    0.2920    2.2880   15.7544    1.3524 
1576.7304   74.4570   91.8680    0.3050    2.2780   15.0026    1.2124 
1576.8828   72.3600   89.3390    0.3070    2.2760   16.4650    1.2995 
1577.0352   77.3330   87.8920    0.3150    2.2690   16.8965    1.1939 
1577.1876   72.8370   87.2900    0.3000    2.2850   15.2612    1.0730 
1577.3400   70.7410   86.9110    0.2890    2.3190   17.2474    1.2770 
1577.4924   66.3550   86.9780    0.2390    2.3490   22.6893    1.6432 
1577.6448   66.9390   87.1340    0.2370    2.3520   15.1748    1.6218 
1577.7972   71.2420   87.8590    0.2620    2.3310   14.1843    1.2710 
1577.9496   74.3200   89.4780    0.2780    2.3170   14.8727    1.3114 
1578.1020   75.0460   90.0940    0.2650    2.3030   14.8241    1.3814 
1578.2544   71.6330   90.1830    0.2610    2.2810   12.1534    1.2620 
1578.4068   69.4690   89.6920    0.2620    2.2490   10.7162    1.1185 
1578.5592   71.0040   89.2390    0.2800    2.2400    9.9375    1.0546 
1578.7116   74.0780   89.3300    0.2900    2.2510    8.5031    0.9528 
1578.8640   75.8150   89.1040    0.2780    2.2770   10.5164    0.9441 
1579.0164   77.7510   88.4920    0.2230    2.3040   13.5796    1.3021 
1579.1688   77.6180   87.7360    0.2230    2.3090   15.8612    1.6347 
1579.3212   78.8570   86.2680    0.2620    2.3070    8.1356    1.7037 
1579.4736   79.5690   85.2950    0.2970    2.2920    7.4016    1.3487 
1579.6260   79.6130   84.4010    0.3100    2.2960    7.4078    1.4250 
1579.7784   78.3480   84.3550    0.3200    2.3170    7.7048    1.4911 
1579.9308   77.1760   84.4620    0.3280    2.3390    7.5025    1.6316 
1580.0832   79.1310   84.4260    0.3070    2.3500    7.2492    1.5759 
1580.2356   76.8590   83.6610    0.2790    2.3530    8.3548    1.9135 
1580.3880   75.2190   82.6590    0.2790    2.3490    7.8964    1.5999 
1580.5404   71.4520   82.9500    0.2940    2.3440    7.1299    1.7335 
1580.6928   75.4970   82.6010    0.2840    2.3480    7.5032    1.5919 
1580.8452   74.1950   82.0400    0.2860    2.3520    7.3450    2.1130 
1580.9976   74.3670   81.0750    0.2740    2.3620    6.9396    2.1670 
1581.1500   72.7290   80.6680    0.2800    2.3700    7.2477    2.2246 
1581.3024   75.3560   79.9860    0.2710    2.3730    7.1361    2.0671 
1581.4548   77.2640   79.4660    0.2500    2.3880    7.9597    2.1173 
1581.6072   74.9260   78.5010    0.2210    2.3970    9.3550    2.5714 
1581.7596   76.2500   77.2440    0.2220    2.4050    9.3682    2.9841 
1581.9120   75.3450   75.2420    0.2320    2.3940    7.6990    3.1132 
1582.0644   80.8410   73.4490    0.2280    2.3910    8.9537    2.9853 
1582.2168   78.2120   69.9630    0.2280    2.4100    9.4776    2.8586 
1582.3692   76.0200   69.5180    0.2070    2.4570   11.6121    4.0192 
1582.5216   67.1080   69.7550    0.1600    2.5050   46.9689    6.6116 
1582.6740   66.2530   69.6800    0.1180    2.5410   32.0692   80.3674 
1582.8264   66.4380   69.7450    0.1060    2.5520   45.0132  122.5313 
1582.9788   69.0300   70.5530    0.1160    2.5300   16.9842   44.4718 
1583.1312   71.3400   72.2000    0.1450    2.4690   10.6161    3.5033 
1583.2836   72.1480   74.5690    0.1750    2.4070    6.5028    1.9778 
1583.4360   73.5140   74.7100    0.2090    2.3720    4.3470    1.5103 
1583.5884   74.5570   76.8280    0.2250    2.3760    5.6690    1.9586 
1583.7408   78.0100   78.5650    0.2250    2.3850    5.2369    2.0183 
1583.8932   78.4970   79.4240    0.2080    2.4040    5.4003    2.5625 
1584.0456   78.7040   81.1980    0.2020    2.4150    9.2157    3.4739 
1584.1980   75.3350   84.3850    0.2000    2.4170    7.2011    5.0749 
1584.3504   80.1030   85.4370    0.2240    2.3880    5.3169    2.9513 
1584.5028   79.8390   84.5130    0.2430    2.3500    4.3327    1.6192 
1584.6552   82.2770   85.4860    0.2840    2.3160    3.9416    1.2220 
1584.8076   74.3180   84.9320    0.2770    2.3030    3.9078    1.1429 
1584.9600   75.5820   84.7710    0.2930    2.3000    3.9587    1.1879 
1585.1124   69.5420   83.6420    0.2670    2.3050    3.5826    1.1253 
1585.2648   73.7190   81.0400    0.2840    2.3330    5.3735    1.3553 
1585.4172   70.8700   78.1100    0.2400    2.3860    8.9566    1.8509 
1585.5696   72.9130   76.5790    0.2190    2.4320   10.2281    3.6035 
1585.7220   77.0040   73.0050    0.1990    2.4530   11.5379    4.4216 
1585.8744   76.0290   70.9480    0.1980    2.4610    7.6449    3.2666 
1586.0268   76.7520   69.8710    0.1970    2.4720    7.8308    3.3876 
1586.1792   72.7760   68.9580    0.1920    2.4850   20.9574    4.0752 
1586.3316   69.4270   67.9160    0.1870    2.4920   24.3975    7.4807 
1586.4840   71.3050   66.0830    0.1840    2.4920   18.3101    9.3001 
1586.6364   71.1660   65.7630    0.1780    2.4900   18.2269    9.0493 
1586.7888   72.5940   64.5150    0.1650    2.4880   17.1835    9.9683 
1586.9412   73.7910   63.3290    0.1620    2.4950   16.7363    9.5987 
1587.0936   73.0230   61.3630    0.1510    2.5190   23.2845    9.7329 
1587.2460   78.1910   60.8060    0.1310    2.5640   29.3037   12.2649 
1587.3984   76.8850   59.2440    0.1140    2.6040   26.9196   11.5817 
1587.5508   74.4080   58.6720    0.1020    2.6240   26.3349   12.6245 
1587.7032   67.1030   58.1560    0.0940    2.6320   35.9320   13.1868 
1587.8556   63.7650   57.9720    0.0840    2.6320   24.8012   25.0617 
1588.0080   65.0140   57.7710    0.0800    2.6320   22.1762   35.9884 
1588.1604   66.9380   57.8260    0.0820    2.6260   26.3775   47.2335 
1588.3128   70.3700   57.8760    0.0810    2.6220   21.8075   61.8716 
1588.4652   72.1750   57.8320    0.0890    2.6120    9.5302   16.1717 
1588.6176   72.7030   57.8580    0.0920    2.5970   11.4327   11.7067 
1588.7700   71.0810   57.6550    0.0880    2.6060   17.5992    9.6845 
1588.9224   66.4600   57.5850    0.0780    2.6310   30.1424    9.3198 
1589.0748   67.4170   57.7780    0.0730    2.6530   31.0321    6.8286 
1589.2272   66.8150   57.7910    0.0770    2.6230   31.6949    7.2640 
