~VERSION INFORMATION
 VERS.                 2.0:   CWLS LOG ASCII STANDARD - VERSION 2.0
 WRAP.                  NO:   SINGLE LINE PER DEPTH STEP
 CREA.                 11/14/2024 5:53:38 PM
#CREATED USING IP VERSION 4.1.2012.198 BY ADMIN ON 11/14/2024 5:53:38 PM
~WELL INFORMATION
#MNEM.UNIT       DATA                          DESCRIPTION MNEMONIC
#---------      ---------------------------   --------------------------
 STRT    .M         1399.9464                 : START DEPTH
 STOP    .M         1650.0348                 : STOP DEPTH
 STEP    .M         0.1524                    : STEP VALUE
 NULL    .      -999.0000                     : NULL VALUE
 SRVC    .      SCH                           : Service Company/Logging company
 DATE    .      11/14/2024                    : LAS file Creation Date
 WELL    .      DD2X                          : Well Name
 COMP    .      Lam Son JOC                   : Company
 FLD     .      Dong Do                       : Field
 STATE   .      Viet Nam                      : State
 COUNT   .      Viet Nam                      : Country
 API     .      6                             : API Number
 UWI     .      6                             : Unique Well Identifier (UWI)
 LOC     .      Location                      : Location
 LATI    .      0.1217883333                  : Latitude/Northing
 LONG    .      0.5657158332                  : Longitude/Easting
 PDAT    .      Mean Sea Level                : Permanent Datum
 EPDAT   .      0.000000                      : Elevation of Permanent Datum
 LGMEA   .      Rotary Table                  : Log Measured from
 APDAT   .      28.799999                     : Elevation Above Permanent Datum
 RWS     .      0                             : Def_Rw
 WST     .      0                             : Def_Rwt
 UTMZ    .      31                            : UTM Zone
 CNTY    .      Shelf Explorer                : County
 PROV    .      Vung Tau                      : Province
 SRVC    .      SCH                           : Contractor
~CURVE INFORMATION
#MNEM              UNIT       API CODE   Curve Type        Comments
#----------  --------------- ----------  --------------- -----------
 DEPTH      .M                         : Depth           
 GR         .gAPI                      : GammaRay        
 DTC        .us/ft                     : Sonic           
 NPHI       .dec                       : Neutron         
 RHOB       .g/cc                      : Density         
 RT_HRLT    .OHMM                      :                 HRLT Computed True Resistivity {F13.4}
 RXOZ       .OHMM                      : MicroRes        MCFL Standard Resolution Invaded Zone Resistivity {F13.4}
~A  DEPTH     GR       DTC       NPHI      RHOB    RT_HRLT     RXOZ   
# ...
1468.8312   88.2540  101.5010    0.3210    2.2450    0.8922    0.4359 
1468.9836   84.9970  101.4240    0.3060    2.2340    0.9973    0.4310 
1469.1360   90.2380  101.5030    0.2830    2.2260    1.0310    0.4340 
1469.2884   92.7150  101.4340    0.3160    2.2240    1.0206    0.4367 
1469.4408   90.9340  100.1160    0.3430    2.2230    1.0018    0.4364 
1469.5932   83.6500   99.8590    0.3770    2.2260    1.0081    0.4385 
1469.7456   80.8940   99.5460    0.3480    2.2290    1.0593    0.4456 
1469.8980   87.3680   98.6560    0.3780    2.2300    1.1483    0.4306 
1470.0504   89.2870   96.1930    0.3730    2.2330    1.0630    0.4190 
1470.2028   91.8240   94.9620    0.3690    2.2410    1.0605    0.4263 
1470.3552   88.2130   93.9480    0.3470    2.2580    1.0876    0.4571 
1470.5076   85.2400   91.4350    0.3430    2.2800    1.1869    0.4911 
1470.6600   77.5200   91.1270    0.3450    2.3100    1.3798    0.5272 
1470.8124   75.6690   91.2910    0.3140    2.3430    1.5248    0.5925 
1470.9648   77.2070   93.9520    0.3100    2.3430    1.4858    0.6687 
1471.1172   81.8170   93.1470    0.3070    2.3180    1.3125    0.6137 
1471.2696   85.5550   93.9960    0.3420    2.2740    1.0060    0.4966 
1471.4220   92.3200   97.0430    0.3410    2.2430    0.9507    0.4260 
1471.5744   90.5680   98.7560    0.3420    2.2290    1.0566    0.4091 
1471.7268   93.6030  100.4000    0.3370    2.2130    1.1005    0.4235 
1471.8792   91.6940  102.3530    0.3350    2.1990    1.0015    0.4125 
1472.0316   97.1170  103.2660    0.3680    2.1900    0.9617    0.3883 
1472.1840   92.6400  103.0300    0.3630    2.1860    0.9664    0.3720 
1472.3364   94.1610  103.0290    0.3940    2.1810    0.9216    0.3667 
1472.4888   98.3850  102.8360    0.3530    2.1730    0.8928    0.3623 
1472.6412  102.2950  102.3210    0.3560    2.1720    0.8639    0.3542 
1472.7936  103.1120  101.4980    0.3330    2.1800    0.8414    0.3531 
1472.9460   97.0970  100.9500    0.3350    2.1900    0.8979    0.3620 
1473.0984   98.4160   99.9780    0.3345    2.1910    0.9439    0.3876 
1473.2508   99.2660   97.4240    0.3170    2.2060    0.8944    0.3992 
1473.4032  111.3200   96.9980    0.3164    2.2470    1.1027    0.4941 
1473.5556  121.8570   96.2760    0.3021    2.3330    2.4673    0.6070 
1473.7080  131.2670   95.6090    0.2911    2.3960    2.5226    0.9413 
1473.8604  131.7360   95.6930    0.2906    2.4020    2.5284    1.1295 
1474.0128  131.7250   95.8630    0.2947    2.3760    2.4251    1.4447 
1474.1652  133.4060   96.1070    0.2979    2.3590    2.6362    0.8213 
1474.3176  137.2070   95.7060    0.2997    2.3360    2.6427    0.6076 
1474.4700  140.1210   97.6730    0.3100    2.3100    2.6730    0.5646 
1474.6224  144.2830   97.6000    0.3114    2.2980    2.7214    0.5095 
1474.7748  146.5330   99.2720    0.3142    2.3190    2.7605    0.5263 
1474.9272  145.1580  102.8110    0.3248    2.3300    3.1578    0.5007 
1475.0796  138.1230  102.9730    0.3277    2.3130    2.7058    0.4133 
1475.2320  139.5750  103.2140    0.3284    2.3140    2.6830    0.3675 
1475.3844  145.0100  104.7940    0.3352    2.3040    2.9787    0.4203 
1475.5368  138.5810  105.2310    0.3366    2.3050    2.6381    0.5653 
1475.6892  133.6450  106.3520    0.3341    2.3500    2.6992    0.6116 
1475.8416  124.0660  112.6670    0.3370    2.4500    2.6229    0.6319 
1475.9940  108.4320  113.8360    0.3000    2.5490    3.7757    1.0501 
1476.1464   98.1650  113.3220    0.2390    2.5730    5.4227    1.9597 
1476.2988   99.4040  112.3490    0.2650    2.5120    2.3961    1.4839 
1476.4512  107.7360  112.1300    0.3070    2.4290    1.9301    0.9290 
1476.6036  133.1370  111.7810    0.3511    2.3600    1.9415    0.6560 
1476.7560  156.9690  113.4040    0.3621    2.3220    2.1413    0.6644 
1476.9084  169.2260  112.6240    0.3599    2.3190    2.2372    0.5500 
1477.0608  162.8500  111.6350    0.3569    2.3160    2.2266    0.5005 
1477.2132  163.8870  107.6960    0.3426    2.3220    2.2338    0.4765 
1477.3656  159.9440  111.1430    0.3558    2.3120    2.2681    0.5436 
1477.5180  156.8410  111.5400    0.3572    2.3120    2.3945    0.6145 
1477.6704  153.5740  111.6180    0.3557    2.3240    2.5787    0.6475 
1477.8228  144.6010  111.5420    0.3532    2.3400    2.6679    0.6396 
1477.9752  144.8580  110.5590    0.3498    2.3400    2.5704    0.6388 
1478.1276  142.5570  109.7000    0.3475    2.3360    2.4445    0.6177 
1478.2800  144.9340  108.2860    0.3408    2.3490    2.6596    0.6139 
1478.4324  138.7930  107.5280    0.3331    2.3850    2.7490    0.5969 
1478.5848  132.7650  105.9520    0.3201    2.4390    2.8739    0.7888 
1478.7372  125.4050  101.6170    0.2980    2.4740    4.2065    1.3690 
1478.8896  116.5100   91.0480    0.2620    2.4960    3.4453    2.6461 
1479.0420  114.6170   87.5860    0.2497    2.5010    3.5720    2.2072 
1479.1944  109.4820   86.6380    0.2750    2.5300    4.9327    2.3777 
1479.3468  107.0410   91.3490    0.2600    2.5510    4.9291    3.3242 
1479.4992  103.2140   86.0610    0.2280    2.5680    4.2312    4.4360 
1479.6516  100.9820   84.5990    0.2170    2.5550    3.2125    3.4888 
1479.8040  104.6610   84.5830    0.2090    2.5500    3.4348    3.3025 
1479.9564  108.5480   84.4720    0.2290    2.5400    4.3943    3.3269 
1480.1088  114.4050   84.1990    0.2470    2.5220    3.6454    3.1736 
1480.2612  104.8180   85.2730    0.2580    2.4780    2.6015    2.6217 
1480.4136  100.2200   85.4110    0.2700    2.4240    2.5077    1.8819 
1480.5660   95.5280   85.4060    0.2870    2.3890    2.1790    1.5649 
1480.7184   98.3430   84.3980    0.2900    2.3800    2.8276    1.4437 
1480.8708   93.0640   85.1220    0.2650    2.3920    3.0114    1.6881 
1481.0232   91.3750   85.4020    0.2680    2.4060    2.6726    1.9436 
1481.1756   95.4840   87.6860    0.2630    2.3950    2.4232    1.7550 
1481.3280  103.3070   95.8180    0.2690    2.3640    2.4331    1.5581 
1481.4804  111.7690   97.6990    0.2730    2.3170    1.8517    1.1921 
1481.6328  110.7600   97.9810    0.2880    2.2740    1.8382    0.9792 
1481.7852  105.2720   98.3020    0.2930    2.2520    1.9644    0.8921 
1481.9376   97.3740   98.8390    0.3120    2.2470    1.9968    0.8888 
1482.0900   94.9840   98.5220    0.3100    2.2550    2.0200    0.8954 
1482.2424   94.5290   98.8140    0.3280    2.2530    1.9714    0.8807 
1482.3948   90.6460   97.9600    0.3370    2.2440    2.0318    0.8573 
1482.5472   85.7290   96.0840    0.3390    2.2280    2.0423    0.8313 
1482.6996   85.8690   88.7990    0.3360    2.2160    2.0727    0.7575 
1482.8520   87.8820   89.7040    0.3260    2.2240    2.2471    0.7272 
1483.0044   84.1930   89.9610    0.3050    2.2670    2.9434    0.7879 
1483.1568   79.4000   89.3090    0.2930    2.3260    4.7282    0.9993 
1483.3092   78.3880   90.5620    0.2790    2.3600    5.1837    1.2592 
1483.4616   79.5680   92.8800    0.2760    2.3460    3.7448    1.3442 
1483.6140   87.1740   94.7860    0.2850    2.2870    1.6874    1.0278 
1483.7664   90.1220   96.6180    0.3150    2.2300    1.4780    0.8130 
1483.9188   93.6610  104.2630    0.3510    2.1910    1.3850    0.7384 
1484.0712   91.9330  104.0480    0.3480    2.1760    1.2602    0.7028 
1484.2236   90.5680  101.2750    0.3410    2.1790    1.2595    0.6278 
1484.3760   89.3550  101.6530    0.3380    2.1940    1.2797    0.5721 
1484.5284   88.8040  101.8630    0.3190    2.2080    1.3163    0.5619 
1484.6808   91.3860  101.7230    0.3340    2.2070    1.2542    0.5430 
1484.8332   93.2320  101.7450    0.3480    2.1930    1.2163    0.5092 
1484.9856   94.7350  102.6920    0.3690    2.1910    1.2506    0.4818 
1485.1380   93.3960  103.3170    0.3510    2.1920    1.2199    0.5012 
1485.2904   95.0100  102.0520    0.3510    2.1870    1.1910    0.5075 
1485.4428   93.0690  102.3320    0.3570    2.1770    1.1361    0.5043 
1485.5952   90.4750  102.5950    0.3660    2.1650    1.1090    0.4918 
1485.7476   89.2040  102.7230    0.3530    2.1660    1.1130    0.4884 
1485.9000   90.2060  102.8340    0.3440    2.1760    1.1446    0.5311 
