~VERSION INFORMATION
 VERS.                 2.0:   CWLS LOG ASCII STANDARD - VERSION 2.0
 WRAP.                  NO:   SINGLE LINE PER DEPTH STEP
 CREA.                 11/14/2024 5:53:38 PM
#CREATED USING IP VERSION 4.1.2012.198 BY ADMIN ON 11/14/2024 5:53:38 PM
~WELL INFORMATION
#MNEM.UNIT       DATA                          DESCRIPTION MNEMONIC
#---------      ---------------------------   --------------------------
 STRT    .M         1399.9464                 : START DEPTH
 STOP    .M         1650.0348                 : STOP DEPTH
 STEP    .M         0.1524                    : STEP VALUE
 NULL    .      -999.0000                     : NULL VALUE
 SRVC    .      SCH                           : Service Company/Logging company
 DATE    .      11/14/2024                    : LAS file Creation Date
 WELL    .      DD2X                          : Well Name
 COMP    .      Lam Son JOC                   : Company
 FLD     .      Dong Do                       : Field
 STATE   .      Viet Nam                      : State
 COUNT   .      Viet Nam                      : Country
 API     .      6                             : API Number
 UWI     .      6                             : Unique Well Identifier (UWI)
 LOC     .      Location                      : Location
 LATI    .      0.1217883333                  : Latitude/Northing
 LONG    .      0.5657158332                  : Longitude/Easting
 PDAT    .      Mean Sea Level                : Permanent Datum
 EPDAT   .      0.000000                      : Elevation of Permanent Datum
 LGMEA   .      Rotary Table                  : Log Measured from
 APDAT   .      28.799999                     : Elevation Above Permanent Datum
 RWS     .      0                             : Def_Rw
 WST     .      0                             : Def_Rwt
 UTMZ    .      31                            : UTM Zone
 CNTY    .      Shelf Explorer                : County
 PROV    .      Vung Tau                      : Province
 SRVC    .      SCH                           : Contractor
~CURVE INFORMATION
#MNEM              UNIT       API CODE   Curve Type        Comments
#----------  --------------- ----------  --------------- -----------
 DEPTH      .M                         : Depth           
 GR         .gAPI                      : GammaRay        
 DTC        .us/ft                     : Sonic           
 NPHI       .dec                       : Neutron         
 RHOB       .g/cc                      : Density         
 RT_HRLT    .OHMM                      :                 HRLT Computed True Resistivity {F13.4}
 RXOZ       .OHMM                      : MicroRes        MCFL Standard Resolution Invaded Zone Resistivity {F13.4}
~A  DEPTH     GR       DTC       NPHI      RHOB    RT_HRLT     RXOZ   
# ...
1537.7160  122.0520   91.2750    0.2780    2.4560    4.0012    0.8126 
1537.8684  109.6250   91.5580    0.2720    2.4130    3.7721    1.3971 
1538.0208  101.2000   91.8410    0.2760    2.3810    3.2706    1.8173 
1538.1732   98.4320   92.1250    0.2770    2.3690    2.9904    1.7256 
1538.3256  101.5440   92.4080    0.2970    2.3860    3.1751    1.6123 
1538.4780  113.0990   92.9270    0.2820    2.4170    3.9491    1.7060 
1538.6304  125.9880   93.4470    0.2860    2.4460    3.7121    2.0634 
1538.7828  129.6130   93.9660    0.2940    2.4650    3.4691    2.3357 
1538.9352  128.6410   94.4850    0.3030    2.4600    3.9561    2.5856 
1539.0876  123.1700   95.0050    0.2840    2.4320    2.3534    2.0131 
1539.2400  124.2180   95.5240    0.2830    2.3860    2.4428    1.5989 
1539.3924  124.5620   96.5630    0.2930    2.3800    3.0835    1.3333 
1539.5448  128.5400   97.6020    0.2920    2.3840    3.4227    1.1012 
1539.6972  136.2270   98.6400    0.3090    2.4030    3.6700    0.5658 
1539.8496  137.2950   98.6400    0.2960    2.3850    3.6975    0.5208 
1540.0020  130.3080   98.6400    0.2860    2.3950    3.4831    0.5705 
1540.1544  126.1040   98.6400    0.2840    2.3930    3.4615    1.3664 
1540.3068  119.3390   98.4990    0.2850    2.3850    3.3561    1.7737 
1540.4592  121.7740   98.3570    0.2730    2.3670    3.2548    1.7476 
1540.6116  120.9180   98.1680    0.2760    2.3880    3.7319    1.6012 
1540.7640  125.0990   97.9790    0.2750    2.4240    3.7310    1.6561 
1540.9164  119.4570   97.7900    0.2900    2.4450    3.9376    1.6227 
1541.0688  115.9400   97.9320    0.2800    2.4320    3.8738    1.8229 
1541.2212  109.2940   98.0740    0.2810    2.4070    4.3333    1.5855 
1541.3736  105.7620   97.2220    0.2800    2.3550    3.9812    1.3926 
1541.5260  100.9880   97.2270    0.2860    2.2880    3.1960    1.0705 
1541.6784   98.2260   97.0770    0.3040    2.2510    3.2524    0.9038 
1541.8308   94.6550   96.9820    0.3180    2.2460    3.6741    0.9301 
1541.9832   98.5420   97.2300    0.3190    2.2580    3.7355    0.9078 
1542.1356  103.5090   97.4600    0.3090    2.2660    3.6167    0.9267 
1542.2880  116.3270   97.5540    0.2890    2.3020    4.5252    0.9743 
1542.4404  119.1760   97.5570    0.2920    2.3630    5.3235    1.3561 
1542.5928  116.7880   97.6040    0.2770    2.3830    5.2916    1.6633 
1542.7452  106.1980   97.8320    0.3210    2.3530    3.8327    1.3321 
1542.8976   98.1720   98.0520    0.3470    2.2900    3.4012    1.0313 
1543.0500   95.9120   97.8490    0.3500    2.2590    3.5274    0.9425 
1543.2024   94.8270   97.5510    0.3110    2.2520    3.5745    0.9846 
1543.3548   95.8590   96.6990    0.3080    2.2530    3.6355    1.0230 
1543.5072   96.4580   96.0720    0.3300    2.2660    3.5489    1.0279 
1543.6596  100.6670   96.1170    0.3250    2.3020    3.7324    1.0770 
1543.8120  101.9890   94.8510    0.3200    2.3440    3.9837    1.0927 
1543.9644   99.9380   94.6330    0.3150    2.3760    5.2881    1.3307 
1544.1168   91.3620   94.3430    0.3020    2.3700    4.4105    1.4416 
1544.2692   90.2660   94.4260    0.2880    2.3390    3.9733    1.4829 
1544.4216   89.9860   94.0320    0.3160    2.3090    4.1897    1.2641 
1544.5740   88.0890   93.8560    0.3490    2.2910    5.0257    1.2210 
1544.7264   82.1400   93.6250    0.3620    2.2820    4.8041    1.1733 
1544.8788   80.0470   93.6800    0.3680    2.2640    4.7847    1.1421 
1545.0312   81.5720   93.6700    0.3360    2.2500    4.7119    1.1234 
1545.1836   84.9040   93.6380    0.3370    2.2550    4.4487    1.0808 
1545.3360   84.9560   93.8180    0.3080    2.2670    4.5542    1.0929 
1545.4884   88.1010   94.4310    0.3100    2.2840    4.4140    1.0929 
1545.6408   89.1560   95.2950    0.2610    2.3020    4.1374    1.2426 
1545.7932   89.3220   95.6350    0.2550    2.3190    4.7000    1.3369 
1545.9456   91.5260   97.4240    0.2610    2.3150    4.4651    1.3767 
1546.0980   87.5920   98.5510    0.2880    2.2850    3.8378    1.2329 
1546.2504   90.7400   99.1680    0.3100    2.2500    3.3922    1.0661 
1546.4028   86.0990   99.0360    0.3110    2.2260    3.1369    0.9747 
1546.5552   90.3070   99.0050    0.3000    2.2190    3.1008    0.8884 
1546.7076   85.4930   99.0980    0.2880    2.2140    2.9993    0.8291 
1546.8600   87.9440   98.7480    0.2990    2.2160    2.8436    0.8289 
1547.0124   81.5680   96.8250    0.3050    2.2300    2.8207    0.8830 
1547.1648   83.2110   95.9220    0.3070    2.2560    3.2125    1.1170 
1547.3172   81.4990   95.0250    0.3110    2.2780    3.0451    1.2923 
1547.4696   85.5550   92.7200    0.2960    2.2850    2.6532    1.3365 
1547.6220   84.8560   91.8230    0.2870    2.2860    2.7485    1.2128 
1547.7744   82.3230   91.3700    0.2900    2.2960    2.9471    1.3194 
1547.9268   84.7910   91.3990    0.2910    2.3150    3.0297    1.4913 
1548.0792   84.5840   91.6370    0.2750    2.3260    3.2103    1.6201 
1548.2316   86.8980   92.2560    0.2840    2.3200    2.7404    1.4301 
1548.3840   84.9700   92.8300    0.2880    2.3030    2.8363    1.2847 
1548.5364   87.5580   93.9850    0.3040    2.2830    2.7652    1.1920 
1548.6888   89.6360   94.5950    0.3090    2.2710    2.4169    1.1067 
1548.8412   88.7490   95.1410    0.3270    2.2550    2.3967    1.0510 
1548.9936   86.1700   95.6760    0.3460    2.2540    2.3928    1.0437 
1549.1460   87.6660   95.8680    0.3300    2.2500    2.5088    1.0523 
1549.2984   86.8540   96.3320    0.3250    2.2530    2.4988    1.0648 
1549.4508   89.9620   96.4220    0.3240    2.2550    2.4730    1.0608 
1549.6032   91.2490   97.0000    0.3530    2.2560    2.5114    1.0471 
1549.7556   91.7650   96.9440    0.3590    2.2550    2.4766    1.0373 
1549.9080   88.8630   96.8110    0.3430    2.2500    2.4003    1.0336 
1550.0604   86.1700   96.3800    0.3180    2.2450    2.4544    1.0397 
1550.2128   90.9430   97.3450    0.3260    2.2390    2.3927    1.0346 
1550.3652   90.5610   96.6670    0.3030    2.2340    2.4240    1.0316 
1550.5176   89.6090   96.5580    0.3140    2.2300    2.4921    1.0437 
1550.6700   89.5100   95.4020    0.3120    2.2320    2.4632    1.0713 
1550.8224   89.1170   96.2980    0.3110    2.2400    2.4995    1.0535 
1550.9748   89.5530   93.8160    0.3070    2.2490    2.5457    1.0376 
1551.1272   88.9350   94.9400    0.2830    2.2580    2.5810    1.0298 
1551.2796   94.4180   93.7110    0.3020    2.2630    2.5824    1.0646 
1551.4320   93.4190   95.9630    0.3050    2.2660    2.6513    1.1084 
1551.5844   92.3850   92.9660    0.3100    2.2660    2.7698    1.1291 
1551.7368   94.4000   92.8220    0.3010    2.2540    2.6237    1.1113 
1551.8892   97.0060   91.0980    0.2950    2.2440    2.4961    1.0664 
1552.0416   92.3780   99.0060    0.2930    2.2460    2.4236    1.0514 
1552.1940   87.7200  100.0210    0.2920    2.2680    2.6208    1.0958 
1552.3464   85.2800  100.9770    0.2890    2.2770    2.6252    1.1612 
1552.4988   84.9340  101.2370    0.3290    2.2640    2.4924    1.0563 
1552.6512   81.4720  102.5520    0.3580    2.2310    2.4513    0.8048 
1552.8036   79.1530  102.2180    0.3850    2.2100    1.8957    0.6235 
1552.9560   80.2820  102.0080    0.3640    2.2020    1.8658    0.5904 
1553.1084   79.5450  102.0970    0.3720    2.1990    1.8358    0.6076 
1553.2608   77.2250   99.8720    0.3590    2.2070    2.0381    0.7086 
1553.4132   75.4210  101.0770    0.3270    2.2260    2.1498    0.8192 
1553.5656   72.0950   99.4770    0.2870    2.2530    2.2615    0.9706 
1553.7180   72.0580   87.2940    0.2670    2.2840    2.3731    1.0215 
1553.8704   73.5260   69.3070    0.2580    2.3140    2.4848    1.1878 
1554.0228   73.9040   68.3320    0.2520    2.3530    3.0294    1.2723 
1554.1752   71.8500   66.8680    0.2350    2.3670    3.7744    2.0867 
1554.3276   71.8650   68.3130    0.2210    2.3530    4.4194    2.0018 
1554.4800   71.2730   70.1660    0.2470    2.3160    2.8634    1.2554 
1554.6324   72.0960   69.7200    0.2470    2.3330    4.1278    1.1505 
1554.7848   69.4470   70.8790    0.1990    2.4050    5.2602    1.5962 
