~VERSION INFORMATION
 VERS.                 2.0:   CWLS LOG ASCII STANDARD - VERSION 2.0
 WRAP.                  NO:   SINGLE LINE PER DEPTH STEP
 CREA.                 11/14/2024 5:53:38 PM
#CREATED USING IP VERSION 4.1.2012.198 BY ADMIN ON 11/14/2024 5:53:38 PM
~WELL INFORMATION
#MNEM.UNIT       DATA                          DESCRIPTION MNEMONIC
#---------      ---------------------------   --------------------------
 STRT    .M         1399.9464                 : START DEPTH
 STOP    .M         1650.0348                 : STOP DEPTH
 STEP    .M         0.1524                    : STEP VALUE
 NULL    .      -999.0000                     : NULL VALUE
 SRVC    .      SCH                           : Service Company/Logging company
 DATE    .      11/14/2024                    : LAS file Creation Date
 WELL    .      DD2X                          : Well Name
 COMP    .      Lam Son JOC                   : Company
 FLD     .      Dong Do                       : Field
 STATE   .      Viet Nam                      : State
 COUNT   .      Viet Nam                      : Country
 API     .      6                             : API Number
 UWI     .      6                             : Unique Well Identifier (UWI)
 LOC     .      Location                      : Location
 LATI    .      0.1217883333                  : Latitude/Northing
 LONG    .      0.5657158332                  : Longitude/Easting
 PDAT    .      Mean Sea Level                : Permanent Datum
 EPDAT   .      0.000000                      : Elevation of Permanent Datum
 LGMEA   .      Rotary Table                  : Log Measured from
 APDAT   .      28.799999                     : Elevation Above Permanent Datum
 RWS     .      0                             : Def_Rw
 WST     .      0                             : Def_Rwt
 UTMZ    .      31                            : UTM Zone
 CNTY    .      Shelf Explorer                : County
 PROV    .      Vung Tau                      : Province
 SRVC    .      SCH                           : Contractor
~CURVE INFORMATION
#MNEM              UNIT       API CODE   Curve Type        Comments
#----------  --------------- ----------  --------------- -----------
 DEPTH      .M                         : Depth           
 GR         .gAPI                      : GammaRay        
 DTC        .us/ft                     : Sonic           
 NPHI       .dec                       : Neutron         
 RHOB       .g/cc                      : Density         
 RT_HRLT    .OHMM                      :                 HRLT Computed True Resistivity {F13.4}
 RXOZ       .OHMM                      : MicroRes        MCFL Standard Resolution Invaded Zone Resistivity {F13.4}
~A  DEPTH     GR       DTC       NPHI      RHOB    RT_HRLT     RXOZ   
# ...
1520.4948   90.8060   95.0880    0.2960    2.2840    1.5330    0.6107 
1520.6472   90.2860   95.5060    0.3080    2.2700    1.2339    0.5237 
1520.7996   86.5480   96.1120    0.2890    2.2590    1.0793    0.4646 
1520.9520   91.4980   96.1910    0.3160    2.2640    1.0440    0.4190 
1521.1044   95.8380   96.1440    0.2960    2.2880    1.1217    0.4894 
1521.2568   98.6080   95.8110    0.3130    2.3090    1.6044    0.6204 
1521.4092  101.4990   95.6040    0.2970    2.3160    1.5395    0.7407 
1521.5616  102.0960   94.2540    0.3080    2.3210    1.5077    0.7041 
1521.7140  100.9490   93.2240    0.3130    2.3310    1.6102    0.6918 
1521.8664  100.0760   91.7940    0.3040    2.3330    1.6380    0.7194 
1522.0188   97.7110   90.6610    0.2810    2.3390    1.6585    0.7578 
1522.1712   94.7250   90.0630    0.2650    2.3380    1.8289    0.7803 
1522.3236   90.7010   89.7760    0.2640    2.3470    1.7137    0.8022 
1522.4760   87.4040   89.8190    0.2820    2.3610    1.5990    0.7773 
1522.6284   87.2470   89.8790    0.2870    2.3720    1.7519    0.8423 
1522.7808   86.0230   90.5820    0.2750    2.3710    1.6890    0.8604 
1522.9332   90.1600   91.5430    0.2680    2.3490    1.4429    0.7748 
1523.0856   95.9080   93.3560    0.2710    2.3180    1.3326    0.6163 
1523.2380   94.9670   94.7150    0.2880    2.2900    1.2358    0.5445 
1523.3904   92.7210   96.8780    0.2760    2.2670    1.2466    0.5203 
1523.5428   89.6270   97.7340    0.2820    2.2590    1.2324    0.5109 
1523.6952   92.7820   95.4830    0.2910    2.2590    1.1731    0.4846 
1523.8476   96.1100   97.5740    0.3030    2.2620    1.1988    0.4729 
1524.0000   98.3340   97.3930    0.3050    2.2580    1.2029    0.4649 
1524.1524   98.7360   97.4560    0.2950    2.2500    1.2504    0.4711 
1524.3048   93.6710   98.3200    0.3040    2.2490    1.2319    0.4650 
1524.4572   90.6140   97.7140    0.2830    2.2580    1.2286    0.4641 
1524.6096   92.6760   96.8880    0.2780    2.2680    1.3002    0.4675 
1524.7620   97.2540   97.4330    0.2780    2.2740    1.3573    0.4957 
1524.9144  101.8960   96.9080    0.2970    2.2720    1.2968    0.4937 
1525.0668   99.1230   96.8710    0.3130    2.2720    1.3002    0.4969 
1525.2192   95.1520   97.2860    0.3110    2.2670    1.3114    0.4809 
1525.3716   90.5650   96.7410    0.3340    2.2620    1.2720    0.4760 
1525.5240   90.8750   96.0090    0.3350    2.2590    1.2592    0.4654 
1525.6764   96.8110   96.2600    0.3400    2.2610    1.2993    0.4702 
1525.8288   97.9020   96.1960    0.3390    2.2690    1.3405    0.4832 
1525.9812   94.2290   95.5300    0.2910    2.2700    1.3875    0.5058 
1526.1336   88.8590   95.8570    0.2730    2.2640    1.5031    0.5170 
1526.2860   93.0550   95.7710    0.2890    2.2570    1.4316    0.4978 
1526.4384   96.9090   94.8070    0.3080    2.2550    1.3668    0.4731 
1526.5908  102.2220   93.8500    0.3280    2.2640    1.4476    0.4901 
1526.7432  102.1720   93.0740    0.3040    2.2750    1.4589    0.5234 
1526.8956  100.7090   89.5440    0.2880    2.2820    1.4317    0.5529 
1527.0480   98.2820   88.9040    0.2690    2.2860    1.4233    0.5571 
1527.2004   94.2220   85.4230    0.2680    2.2950    1.4285    0.5624 
1527.3528   96.1820   84.0720    0.2520    2.3290    1.6130    0.6043 
1527.5052   93.7630   83.0350    0.2480    2.4070    2.4240    0.8115 
1527.6576   87.9630   76.3980    0.1900    2.5020    4.8872    1.4781 
1527.8100   90.8770   76.4580    0.1510    2.5650    5.9244    4.0919 
1527.9624   97.6360   76.2130    0.1260    2.5620    9.5268    3.7392 
1528.1148  112.7580   76.1600    0.1390    2.5270    4.4869    2.5320 
1528.2672  118.1850   76.5030    0.1750    2.5140    3.9697    1.3637 
1528.4196  122.5330   78.4480    0.2110    2.5180    5.0283    1.6787 
1528.5720  120.9750   80.1920    0.2250    2.5480    4.8351    2.1160 
1528.7244  121.2120   81.0970    0.2270    2.5660    4.3879    3.8998 
1528.8768  118.4290   81.5550    0.2290    2.5920    5.4361    4.1817 
1529.0292  116.5810   81.4280    0.2350    2.5910    4.7951    4.3812 
1529.1816  116.4970   79.8980    0.2560    2.5820    4.6679    4.1337 
1529.3340  112.2190   79.2490    0.2600    2.5700    4.9806    3.5739 
1529.4864  115.0070   80.8050    0.2630    2.5660    4.6589    3.6306 
1529.6388  113.7500   83.2530    0.2360    2.5690    4.2635    3.7231 
1529.7912  116.3760   85.7840    0.2370    2.5440    4.0071    3.8893 
1529.9436  118.3830   86.5190    0.2330    2.4710    4.0252    3.0359 
1530.0960  120.2830   87.4540    0.2750    2.3750    3.9217    0.5372 
1530.2484  122.3310   90.6070    0.3480    2.3590    3.3294    0.3913 
1530.4008  120.8360   90.8660    0.3860    2.4220    3.3730    0.3521 
1530.5532  117.9510   91.7140    0.4040    2.4760    3.5353    0.5858 
1530.7056  124.1660   91.9550    0.3580    2.5030    4.4868    0.8435 
1530.8580  124.4070   91.8770    0.3280    2.4850    4.1758    1.6513 
1531.0104  122.9520   91.6610    0.2910    2.4880    4.0870    2.9878 
1531.1628  119.4880   89.8400    0.2780    2.4920    4.2128    1.9683 
1531.3152  115.8640   88.4390    0.2670    2.5090    4.1455    1.8999 
1531.4676  115.9720   87.5040    0.2410    2.5380    4.4239    1.8310 
1531.6200  112.2470   86.4860    0.2340    2.5450    3.7936    3.2366 
1531.7724  113.2600   86.5940    0.2240    2.5450    3.6753    3.6118 
1531.9248  115.9970   86.7120    0.2170    2.5410    3.6903    3.9033 
1532.0772  114.3160   86.1900    0.2150    2.5400    3.7458    3.6345 
1532.2296  112.5950   86.2830    0.2250    2.5410    3.8222    3.9542 
1532.3820  111.0040   86.7320    0.2220    2.5420    4.2724    3.9546 
1532.5344  114.9470   87.1500    0.2160    2.5340    3.4802    3.9227 
1532.6868  120.3780   87.0530    0.2170    2.5190    3.1264    3.1343 
1532.8392  121.6470   86.6400    0.2280    2.5020    3.1197    2.5689 
1532.9916  118.0100   86.4680    0.2460    2.4970    2.9648    2.4010 
1533.1440  114.0770   86.7520    0.2700    2.5110    3.2883    2.4465 
1533.2964  113.7370   87.9160    0.2610    2.5370    3.0004    2.8396 
1533.4488  118.6080   87.5230    0.2610    2.5640    3.2411    3.2805 
1533.6012  115.2390   87.0090    0.2380    2.5890    3.4617    4.1537 
1533.7536  115.7090   87.0800    0.2350    2.6000    3.3347    4.5171 
1533.9060  111.1720   88.6250    0.2320    2.5790    4.0201    4.4322 
1534.0584  117.9360   90.0580    0.2350    2.5390    5.5168    3.3613 
1534.2108  118.0400   91.7750    0.2390    2.5000    3.4644    2.5187 
1534.3632  120.9940   91.4960    0.2610    2.4750    3.0507    1.9401 
1534.5156  117.9030   96.6410    0.2770    2.4580    3.3587    1.9095 
1534.6680  116.0510   94.2900    0.3000    2.4340    2.9856    1.4890 
1534.8204  121.9640   94.2580    0.3030    2.4050    2.6509    1.3532 
1534.9728  119.3410   96.7470    0.3030    2.3870    2.6327    1.2638 
1535.1252  118.5970   97.7850    0.3010    2.3890    2.5534    1.4283 
1535.2776  117.2900   97.8010    0.3100    2.4040    2.7140    1.5123 
1535.4300  113.8660   97.6890    0.3150    2.4070    2.5497    1.5423 
1535.5824  117.1670   99.3670    0.3000    2.3950    2.8115    1.4605 
1535.7348  118.2330   99.2730    0.2960    2.3990    2.7314    1.5504 
1535.8872  129.5540   98.7850    0.3020    2.4020    3.1422    1.3099 
1536.0396  137.8810   95.8070    0.3240    2.4130    3.2243    1.0761 
1536.1920  141.2160   95.0140    0.3530    2.4210    3.4357    0.8027 
1536.3444  130.3890   94.2210    0.3150    2.4450    3.3928    1.0182 
1536.4968  116.6370   93.4280    0.2530    2.4840    4.7472    1.6379 
1536.6492  108.8110   92.6350    0.2220    2.5040    2.8197    3.1716 
1536.8016  112.3310   91.8410    0.2220    2.5060    2.6034    2.4063 
1536.9540  121.7920   91.6710    0.2450    2.4880    2.6801    2.2731 
1537.1064  131.2570   91.5010    0.2750    2.4600    3.0704    2.1334 
1537.2588  138.6600   91.3310    0.3020    2.4350    3.1335    2.1521 
1537.4112  136.3990   91.1620    0.2830    2.4470    3.4726    1.0698 
1537.5636  130.8980   90.9920    0.2710    2.4540    3.6719    0.8342 
