~VERSION INFORMATION
 VERS.                 2.0:   CWLS LOG ASCII STANDARD - VERSION 2.0
 WRAP.                  NO:   SINGLE LINE PER DEPTH STEP
 CREA.                 11/14/2024 5:53:38 PM
#CREATED USING IP VERSION 4.1.2012.198 BY ADMIN ON 11/14/2024 5:53:38 PM
~WELL INFORMATION
#MNEM.UNIT       DATA                          DESCRIPTION MNEMONIC
#---------      ---------------------------   --------------------------
 STRT    .M         1399.9464                 : START DEPTH
 STOP    .M         1650.0348                 : STOP DEPTH
 STEP    .M         0.1524                    : STEP VALUE
 NULL    .      -999.0000                     : NULL VALUE
 SRVC    .      SCH                           : Service Company/Logging company
 DATE    .      11/14/2024                    : LAS file Creation Date
 WELL    .      DD2X                          : Well Name
 COMP    .      Lam Son JOC                   : Company
 FLD     .      Dong Do                       : Field
 STATE   .      Viet Nam                      : State
 COUNT   .      Viet Nam                      : Country
 API     .      6                             : API Number
 UWI     .      6                             : Unique Well Identifier (UWI)
 LOC     .      Location                      : Location
 LATI    .      0.1217883333                  : Latitude/Northing
 LONG    .      0.5657158332                  : Longitude/Easting
 PDAT    .      Mean Sea Level                : Permanent Datum
 EPDAT   .      0.000000                      : Elevation of Permanent Datum
 LGMEA   .      Rotary Table                  : Log Measured from
 APDAT   .      28.799999                     : Elevation Above Permanent Datum
 RWS     .      0                             : Def_Rw
 WST     .      0                             : Def_Rwt
 UTMZ    .      31                            : UTM Zone
 CNTY    .      Shelf Explorer                : County
 PROV    .      Vung Tau                      : Province
 SRVC    .      SCH                           : Contractor
~CURVE INFORMATION
#MNEM              UNIT       API CODE   Curve Type        Comments
#----------  --------------- ----------  --------------- -----------
 DEPTH      .M                         : Depth           
 GR         .gAPI                      : GammaRay        
 DTC        .us/ft                     : Sonic           
 NPHI       .dec                       : Neutron         
 RHOB       .g/cc                      : Density         
 RT_HRLT    .OHMM                      :                 HRLT Computed True Resistivity {F13.4}
 RXOZ       .OHMM                      : MicroRes        MCFL Standard Resolution Invaded Zone Resistivity {F13.4}
~A  DEPTH     GR       DTC       NPHI      RHOB    RT_HRLT     RXOZ   
# ...
1623.8220   67.3240   65.6240    0.1380    2.5190   17.6722    6.1676 
1623.9744   65.3860   66.0080    0.1370    2.5270   19.2280    7.0152 
1624.1268   64.9460   62.6120    0.1180    2.5400   28.7521    7.4218 
1624.2792   67.0310   64.9740    0.1120    2.5600   51.6876   10.6217 
1624.4316   67.2530   65.5690    0.1050    2.5880   68.6339   18.7933 
1624.5840   66.0790   65.3850    0.0970    2.6170   43.0878   57.0465 
1624.7364   67.2700   64.8840    0.0880    2.6320   26.3212   62.3970 
1624.8888   71.7100   66.6790    0.0910    2.6210   11.4022   33.1785 
1625.0412   73.6440   73.9380    0.1170    2.5580    4.7287    3.0104 
1625.1936   74.7720   73.1380    0.1590    2.4910    3.1025    2.1653 
1625.3460   72.2730   68.4130    0.2080    2.4770    5.0265    1.9303 
1625.4984   72.2360   67.6390    0.1980    2.5030    5.1476    3.7290 
1625.6508   69.2260   66.6530    0.1710    2.5250    5.2285    3.3440 
1625.8032   70.8500   66.3420    0.1390    2.5240    4.7540    1.8844 
1625.9556   70.3580   65.3190    0.1070    2.5470   11.2343    2.1988 
1626.1080   68.8290   64.1020    0.0900    2.5860   18.2082    3.4573 
1626.2604   67.7750   62.2870    0.0950    2.5930   10.7954   16.3789 
1626.4128   66.6180   62.6530    0.1070    2.5680    9.3549    4.2707 
1626.5652   64.7730   61.7750    0.1130    2.5450    9.6316    3.4859 
1626.7176   63.4250   60.9840    0.0990    2.5520   21.2589    4.4087 
1626.8700   63.1800   61.6430    0.0890    2.5630   18.5923   11.5568 
1627.0224   64.9640   64.4820    0.0920    2.5570   13.4525    4.5016 
1627.1748   66.2130   72.1460    0.1100    2.5410   13.1901    4.0173 
1627.3272   67.6920   86.7570    0.1330    2.5220    6.1400    3.5326 
1627.4796   70.2690  101.3680    0.1660    2.4660    2.2486    2.4530 
1627.6320   71.1240  101.2480    0.2160    2.3790    1.8707    1.0320 
1627.7844   76.3630  102.7240    0.2680    2.2880    1.2373    0.6050 
1627.9368   79.3270  102.3140    0.3090    2.2390    1.1463    0.4606 
1628.0892   79.4650  101.2120    0.3060    2.2200    1.0914    0.4139 
1628.2416   79.1980   97.4080    0.3340    2.2130    1.0393    0.3977 
1628.3940   80.8730  101.5400    0.3490    2.2160    1.1858    0.3830 
1628.5464   86.3390  102.4080    0.3630    2.2190    1.2033    0.3957 
1628.6988   84.9400  101.9910    0.3240    2.2190    1.3344    0.4021 
1628.8512   82.8060  101.9550    0.3440    2.2120    1.4473    0.3957 
1629.0036   79.6230  102.7330    0.3320    2.2080    1.3884    0.3944 
1629.1560   81.8060  102.2980    0.3230    2.2030    1.3723    0.3728 
1629.3084   83.7810  102.0760    0.2850    2.1950    1.3830    0.3963 
1629.4608   86.2800  101.6500    0.3050    2.1980    1.3314    0.3930 
1629.6132   85.2970  100.4390    0.3400    2.2120    1.2565    0.4145 
1629.7656   82.9510   99.0800    0.3300    2.2330    1.2399    0.4130 
1629.9180   80.9090   97.9970    0.2980    2.2460    1.3879    0.4445 
1630.0704   78.2780   96.5650    0.2780    2.2510    1.4494    0.4537 
1630.2228   80.1830   95.7260    0.2950    2.2400    1.6027    0.4761 
1630.3752   82.5780   96.3290    0.2820    2.2540    1.7006    0.5036 
1630.5276   83.1970   96.1070    0.2620    2.2840    2.1080    0.5474 
1630.6800   80.7250   96.5750    0.2360    2.3100    2.1637    0.5396 
1630.8324   78.8580   97.0500    0.2530    2.2930    1.8635    0.4943 
1630.9848   83.4640   97.7510    0.2650    2.2510    1.7084    0.4199 
1631.1372   86.1990   99.7160    0.3100    2.2220    1.5007    0.3755 
1631.2896   86.3160  100.0740    0.3400    2.2060    1.2958    0.3418 
1631.4420   85.5720  100.7580    0.3360    2.1990    1.2086    0.3368 
1631.5944   85.9680  102.3520    0.3470    2.1940    1.1561    0.3328 
1631.7468   86.4460  102.7110    0.3250    2.1880    1.1302    0.3311 
1631.8992   92.4290  103.3100    0.3370    2.1760    1.0888    0.3324 
1632.0516   94.3380  104.5680    0.3140    2.1650    1.1007    0.3336 
1632.2040   92.2640  104.8200    0.3300    2.1570    1.1880    0.3529 
1632.3564   83.0260  105.1710    0.3300    2.1440    1.1890    0.3595 
1632.5088   80.8800  105.4150    0.3630    2.1380    1.1637    0.3599 
1632.6612   83.9960  105.3650    0.3710    2.1410    1.0778    0.3310 
1632.8136   83.7890  105.2100    0.3710    2.1490    1.1018    0.3218 
1632.9660   83.1860  105.2620    0.3630    2.1500    1.0757    0.3095 
1633.1184   82.9270  105.1840    0.3470    2.1450    0.9937    0.3079 
1633.2708   85.6610  105.1660    0.3450    2.1490    0.9761    0.3073 
1633.4232   85.6710  105.3440    0.3450    2.1420    1.0901    0.3390 
1633.5756   85.3060  105.4380    0.3490    2.1400    1.0934    0.3643 
1633.7280   83.5160  105.2110    0.3310    2.1410    1.1098    0.3753 
1633.8804   80.0180  105.0830    0.3410    2.1540    1.0822    0.3562 
1634.0328   80.5420  104.2110    0.3210    2.1600    1.0752    0.3505 
1634.1852   78.9580  104.8050    0.3320    2.1640    1.1188    0.3486 
1634.3376   81.5330  103.6850    0.3100    2.1590    1.1534    0.3452 
1634.4900   82.1580  103.4630    0.3130    2.1610    1.2201    0.3435 
1634.6424   82.6430  103.8400    0.2970    2.1720    1.1527    0.3450 
1634.7948   85.2870  102.7800    0.3090    2.1880    1.1476    0.3426 
1634.9472   89.1510  102.7000    0.3130    2.1980    1.1169    0.3492 
1635.0996   94.7100  102.4720    0.3250    2.1980    1.1418    0.3625 
1635.2520   93.0180  103.3010    0.3530    2.2010    1.1444    0.3689 
1635.4044   85.5790  102.3680    0.3510    2.1950    1.1672    0.3602 
1635.5568   80.8070  102.2030    0.3500    2.1810    1.2175    0.3454 
1635.7092   84.4380  101.9160    0.3120    2.1690    1.1327    0.3356 
1635.8616   89.1910  101.7750    0.3120    2.1740    1.0916    0.3340 
1636.0140   94.6470  102.2700    0.3110    2.1730    1.1635    0.3530 
1636.1664   89.3650  101.6800    0.3110    2.1820    1.1717    0.3900 
1636.3188   85.8950  101.9890    0.3100    2.1970    1.2215    0.3977 
1636.4712   80.4900  102.7920    0.3250    2.2120    1.1973    0.3836 
1636.6236   84.0400  103.9520    0.3680    2.2150    1.1725    0.3641 
1636.7760   83.4740  105.2280    0.3640    2.2030    1.0626    0.3492 
1636.9284   82.6250  105.5050    0.3520    2.2000    1.0521    0.3476 
1637.0808   81.3390  105.4410    0.3200    2.1930    1.0725    0.3577 
1637.2332   81.9720  105.4890    0.3270    2.2000    1.0159    0.3790 
1637.3856   85.4230  104.5640    0.3340    2.2100    0.9759    0.3810 
1637.5380   86.3720  103.3500    0.3550    2.2110    0.9306    0.3819 
1637.6904   85.5900  104.6350    0.3340    2.1990    0.8901    0.3659 
1637.8428   89.2220   81.6430    0.3370    2.2120    0.8284    0.3559 
1637.9952   89.2530   78.2440    0.3050    2.3140    1.1384    0.4175 
1638.1476   93.6350   74.8440    0.2170    2.4820    3.1718    0.7172 
1638.3000   89.5850   71.4450    0.1590    2.6250    6.9744    2.4905 
1638.4524   82.9420   68.0450    0.1210    2.6920   10.0099   21.0696 
1638.6048   74.2670   63.7960    0.1080    2.6740   20.8939   29.9787 
1638.7572   70.0790   63.5130    0.0960    2.6150   20.8742   33.3163 
1638.9096   72.9330   63.2300    0.0860    2.5320   22.2764   15.9342 
1639.0620   76.3900   62.9460    0.0960    2.4800   19.7959   10.4829 
1639.2144   76.5310   61.9340    0.1010    2.4870   12.6547   10.7086 
1639.3668   73.9800   64.0480    0.1150    2.5210   12.4241   11.1749 
1639.5192   72.6240   65.2370    0.1130    2.5600   19.1066   14.1016 
1639.6716   72.7120   67.1080    0.1040    2.5780   27.8826   17.0998 
1639.8240   74.3200   67.6030    0.1020    2.5880   19.6013   22.7665 
1639.9764   74.4110   65.1860    0.1100    2.5560   11.8919    9.1748 
1640.1288   74.5800   64.3510    0.1330    2.4960    7.1346    2.7970 
1640.2812   74.5300   63.4320    0.1660    2.4390    4.2132    1.5667 
1640.4336   77.5870   64.1630    0.1650    2.4320    7.2285    1.2913 
1640.5860   76.0360   64.5930    0.1350    2.4780   12.2659    1.8649 
1640.7384   73.5330   64.5890    0.1030    2.5240   23.9743    3.9805 
1640.8908   70.2530   63.4210    0.0960    2.5540   30.4739   19.6566 
