~VERSION INFORMATION
 VERS.                 2.0:   CWLS LOG ASCII STANDARD - VERSION 2.0
 WRAP.                  NO:   SINGLE LINE PER DEPTH STEP
 CREA.                 11/14/2024 5:53:38 PM
#CREATED USING IP VERSION 4.1.2012.198 BY ADMIN ON 11/14/2024 5:53:38 PM
~WELL INFORMATION
#MNEM.UNIT       DATA                          DESCRIPTION MNEMONIC
#---------      ---------------------------   --------------------------
 STRT    .M         1399.9464                 : START DEPTH
 STOP    .M         1650.0348                 : STOP DEPTH
 STEP    .M         0.1524                    : STEP VALUE
 NULL    .      -999.0000                     : NULL VALUE
 SRVC    .      SCH                           : Service Company/Logging company
 DATE    .      11/14/2024                    : LAS file Creation Date
 WELL    .      DD2X                          : Well Name
 COMP    .      Lam Son JOC                   : Company
 FLD     .      Dong Do                       : Field
 STATE   .      Viet Nam                      : State
 COUNT   .      Viet Nam                      : Country
 API     .      6                             : API Number
 UWI     .      6                             : Unique Well Identifier (UWI)
 LOC     .      Location                      : Location
 LATI    .      0.1217883333                  : Latitude/Northing
 LONG    .      0.5657158332                  : Longitude/Easting
 PDAT    .      Mean Sea Level                : Permanent Datum
 EPDAT   .      0.000000                      : Elevation of Permanent Datum
 LGMEA   .      Rotary Table                  : Log Measured from
 APDAT   .      28.799999                     : Elevation Above Permanent Datum
 RWS     .      0                             : Def_Rw
 WST     .      0                             : Def_Rwt
 UTMZ    .      31                            : UTM Zone
 CNTY    .      Shelf Explorer                : County
 PROV    .      Vung Tau                      : Province
 SRVC    .      SCH                           : Contractor
~CURVE INFORMATION
#MNEM              UNIT       API CODE   Curve Type        Comments
#----------  --------------- ----------  --------------- -----------
 DEPTH      .M                         : Depth           
 GR         .gAPI                      : GammaRay        
 DTC        .us/ft                     : Sonic           
 NPHI       .dec                       : Neutron         
 RHOB       .g/cc                      : Density         
 RT_HRLT    .OHMM                      :                 HRLT Computed True Resistivity {F13.4}
 RXOZ       .OHMM                      : MicroRes        MCFL Standard Resolution Invaded Zone Resistivity {F13.4}
~A  DEPTH     GR       DTC       NPHI      RHOB    RT_HRLT     RXOZ   
# ...
1503.2736  111.8810   90.0120    0.2340    2.5400    2.9876    3.2157 
1503.4260  114.8650   86.3960    0.2420    2.5250    3.8366    2.9554 
1503.5784  109.6340   86.0540    0.2210    2.5210    4.9210    3.2289 
1503.7308  109.3240   84.1940    0.1970    2.5340    4.8039    3.9095 
1503.8832  106.9870   83.4390    0.1860    2.5480    4.5201    4.3284 
1504.0356  105.9510   82.9890    0.1970    2.5630    4.7921    4.3547 
1504.1880  107.8060   82.5690    0.2040    2.5600    3.9410    3.9073 
1504.3404  106.5250   81.5060    0.2020    2.5360    3.0173    2.6444 
1504.4928  109.8170   80.6510    0.2060    2.4970    3.0856    1.9763 
1504.6452  111.9000   81.3990    0.2020    2.4830    4.6210    1.9538 
1504.7976  110.0750   81.4720    0.1970    2.5120    5.5548    2.4803 
1504.9500  101.1210   82.1490    0.1980    2.5410    4.5667    3.6323 
1505.1024   94.0930   83.9100    0.2010    2.5380    5.0364    3.7796 
1505.2548   92.8900   85.4510    0.2180    2.5120    5.4755    3.7345 
1505.4072   96.8080   87.8470    0.2480    2.4520    3.4763    2.4378 
1505.5596   95.9200   90.1310    0.2850    2.3670    3.1161    1.4245 
1505.7120   91.9260   94.8330    0.3000    2.2770    2.9542    1.0138 
1505.8644   94.6380   94.7930    0.3280    2.2330    3.0037    0.8756 
1506.0168   93.2810   96.0980    0.3130    2.2240    3.0298    0.8750 
1506.1692   98.4520   98.4180    0.3030    2.2220    2.9305    0.7964 
1506.3216   95.1250   98.5120    0.3160    2.2100    2.7807    0.7049 
1506.4740   93.8440   97.8480    0.3170    2.2120    2.8661    0.6503 
1506.6264   86.9580   96.0910    0.3160    2.2600    3.1986    0.7465 
1506.7788   86.3090   93.9190    0.3050    2.3640    3.1444    1.1725 
1506.9312   84.3500   91.7470    0.2820    2.4670    2.8851    2.5595 
1507.0836   80.9300   89.5750    0.2510    2.5070    4.5288    7.4659 
1507.2360   78.1040   84.5780    0.2580    2.4720    3.0199    3.8911 
1507.3884   72.1270   83.6310    0.2680    2.4620    2.4571    3.2051 
1507.5408   71.5820   80.0730    0.2550    2.4740    3.8171    3.5055 
1507.6932   69.4870   82.0320    0.2300    2.4930    5.1010    7.5766 
1507.8456   73.0630   78.9560    0.2470    2.4380    2.4094    2.3403 
1507.9980   80.6770   78.5390    0.2550    2.4280    2.6995    1.7648 
1508.1504   86.0760   78.5780    0.2540    2.4620    4.8406    1.7854 
1508.3028   87.1720   77.7700    0.2110    2.5320    4.5752    4.4330 
1508.4552   82.8880   76.8150    0.1910    2.5610    4.1928    5.4356 
1508.6076   79.2530   76.6920    0.1770    2.5490    3.9798    5.6198 
1508.7600   84.3870   76.7450    0.1880    2.5160    3.6567    3.6558 
1508.9124   87.9640   76.7750    0.1970    2.5060    2.1431    3.0897 
1509.0648   89.4940   81.1420    0.2030    2.5310    2.2716    3.4537 
1509.2172   90.8370   85.4880    0.1890    2.5730    4.2116    7.1726 
1509.3696   98.8180   88.3730    0.1930    2.5380    3.3905    5.0200 
1509.5220  106.1940   90.9550    0.2110    2.4480    2.2073    1.5522 
1509.6744  107.6920   93.6660    0.2420    2.3510    2.1978    0.8737 
1509.8268  104.5670   93.9660    0.3000    2.2970    1.6926    0.6608 
1509.9792  103.7740   98.2420    0.3450    2.2760    1.6064    0.7034 
1510.1316  110.2090   98.3760    0.3480    2.3240    2.6860    0.8689 
1510.2840  117.7620   99.5230    0.3290    2.3920    2.9426    1.0222 
1510.4364  131.8640   99.7250    0.3240    2.4570    3.3662    1.3925 
1510.5888  127.1100   99.4680    0.3030    2.4540    2.5522    1.9739 
1510.7412  122.0760   99.9550    0.3020    2.4020    1.8479    1.4325 
1510.8936  106.6770  100.3910    0.3050    2.3270    2.0703    0.9499 
1511.0460  105.8630  100.3520    0.3330    2.2660    1.6630    0.7507 
1511.1984  106.1570  100.1330    0.3380    2.2370    1.7160    0.7525 
1511.3508  106.8760   99.8390    0.3280    2.2390    1.5505    0.7605 
1511.5032  103.6470   99.2680    0.3230    2.2550    1.5393    0.7262 
1511.6556  101.8490   98.0600    0.3010    2.2750    1.5486    0.6822 
1511.8080  101.8190   98.5790    0.2990    2.2880    1.4301    0.6567 
1511.9604  106.5190   99.6020    0.2740    2.2970    1.3763    0.6087 
1512.1128  111.8880   97.8690    0.2790    2.3150    1.4053    0.5953 
1512.2652  118.9570   97.9950    0.2840    2.3530    1.9534    0.7475 
1512.4176  120.9420   98.5740    0.2810    2.3930    2.3767    1.0369 
1512.5700  124.8420   97.2580    0.2910    2.4140    2.9989    1.1045 
1512.7224  116.6480   95.9420    0.3030    2.4010    2.1512    1.0532 
1512.8748  110.3000   95.4430    0.3360    2.3760    1.5437    0.7801 
1513.0272   98.3450   93.5220    0.3330    2.3670    1.4751    0.8387 
1513.1796   91.5730   90.1710    0.3100    2.3750    2.0814    0.8541 
1513.3320   83.4230   86.1390    0.2890    2.3730    2.2026    1.0465 
1513.4844   82.4730   87.0670    0.2880    2.3620    2.0391    0.9756 
1513.6368   82.2580   83.5340    0.2880    2.3660    2.0277    0.9001 
1513.7892   85.4460   81.0710    0.2580    2.3990    2.3006    0.9711 
1513.9416   79.1990   82.8740    0.2320    2.4340    2.1171    1.1594 
1514.0940   79.9630   83.4880    0.2240    2.4410    1.6325    1.1708 
1514.2464   77.9380   83.0490    0.2460    2.4250    1.7033    0.9812 
1514.3988   86.2050   86.5350    0.2710    2.3970    1.5466    0.8780 
1514.5512   86.2070   86.3160    0.2820    2.3740    1.4778    0.8997 
1514.7036   87.4640   94.6910    0.2790    2.3440    1.3989    0.8004 
1514.8560   87.9370   96.9570    0.2820    2.3140    1.2490    0.6805 
1515.0084   94.1560   93.3420    0.2990    2.3080    1.2552    0.5835 
1515.1608  103.6220   93.8480    0.3250    2.3260    1.3816    0.6973 
1515.3132  112.5750  101.9210    0.3440    2.3560    1.7206    0.9546 
1515.4656  116.0840  101.5200    0.3340    2.3550    1.6090    1.1978 
1515.6180  114.7490  101.6230    0.3220    2.3230    1.7583    0.9528 
1515.7704  108.7360  101.8600    0.3050    2.2720    1.4725    0.7528 
1515.9228  105.5910  102.3580    0.3330    2.2350    1.4671    0.6456 
1516.0752   99.8440  102.2740    0.3480    2.2150    1.5993    0.6608 
1516.2276   98.2430  102.6940    0.3420    2.2120    1.5517    0.6783 
1516.3800   96.9100  101.4610    0.3100    2.2230    1.5513    0.7143 
1516.5324  101.3560  101.2990    0.3050    2.2490    1.5880    0.7404 
1516.6848  103.7100  101.3980    0.3040    2.2920    1.6830    0.8538 
1516.8372  110.4930  100.4710    0.3110    2.3180    1.7144    0.9683 
1516.9896  107.8240   98.9770    0.3030    2.3100    1.4607    0.8276 
1517.1420  108.3020   96.3760    0.3060    2.2820    1.3627    0.6184 
1517.2944  102.5870   94.4620    0.2840    2.2910    1.6764    0.5562 
1517.4468  101.6490   94.2360    0.2620    2.3320    2.4850    0.6729 
1517.5992   93.3040   94.3220    0.2340    2.3540    2.8280    0.8722 
1517.7516   89.8860   94.5460    0.2620    2.3150    2.3957    0.6744 
1517.9040   86.7280   95.4210    0.2890    2.2560    1.4800    0.4965 
1518.0564   91.6880   95.3800    0.3270    2.2250    1.3048    0.4501 
1518.2088   95.9350   98.1740    0.3240    2.2550    1.1885    0.4930 
1518.3612  104.1370   98.3680    0.3220    2.2950    1.3500    0.6760 
1518.5136  107.2050   98.5110    0.3180    2.3230    1.6810    0.8807 
1518.6660  110.6810   98.4230    0.2950    2.3130    1.5252    0.8146 
1518.8184  106.4940   97.7500    0.3010    2.3030    1.3732    0.7431 
1518.9708  104.0710   97.1960    0.2990    2.2960    1.3236    0.6663 
1519.1232   98.0750   96.1060    0.3230    2.2850    1.3388    0.6347 
1519.2756   99.3290   94.4830    0.3250    2.2720    1.4705    0.5605 
1519.4280   96.4110   93.0130    0.3090    2.2650    1.3921    0.5493 
1519.5804   94.5750   92.4110    0.2820    2.2790    1.6341    0.5821 
1519.7328   85.4500   90.7300    0.2930    2.2900    1.7103    0.5952 
1519.8852   82.5960   91.9150    0.2930    2.2970    1.6972    0.6165 
1520.0376   87.6640   90.5910    0.2940    2.2980    1.6524    0.5902 
1520.1900   89.7710   93.5490    0.2870    2.2950    1.5916    0.5974 
1520.3424   95.2380   94.3650    0.2950    2.2910    1.5429    0.5901 
